COD_INE;COD_GEO;COD_PROV;PROVINCIA;NOMBRE_ACTUAL;SUPERFICIE;PERIMETRO;LONGITUD_ETRS89;LATITUD_ETRS89;ALTITUD;HABITANTES;HOMBRES;MUJERES;TOTAL_PARO;H25;H25_44;H45;M25;M25_44;M45;AGRICULTURA;INDUSTRIA;CONSTRUCCION;SERVICIOS;SINEMPLEOANTERIOR;AÑO;EDAD_MEDIA;de0-18;de19-67;masde68;de0-12
01001000000;01010;01;ARABA/ÁLAVA;ALEGRÍA-DULANTZI;1994.5872;35069.0;-2.51243731;42.83981158;568.0;2913.0;1512.0;1401.0;161;1;28;31;9;60;32;2;25;8;98;28;2017;38.13594233;756;1895;262;527
01002000000;01020;01;ARABA/ÁLAVA;AMURRIO;9635.289;65134.0;-3.00007326;43.05427776;219.0;10291.0;5101.0;5190.0;750;17;151;141;26;223;192;27;105;76;436;106;2017;44.96113109;1740;6689;1862;1275
01003000000;01030;01;ARABA/ÁLAVA;ARAMAIO;7327.4027;41818.0;-2.56540037;43.05119653;333.0;1496.0;791.0;705.0;18;0;4;8;-1;3;3;0;8;3;7;-1;2017;45.08823529;290;929;277;187
01004000000;01040;01;ARABA/ÁLAVA;ARTZINIEGA;2728.73;22886.0;-3.12791718;43.12084358;210.0;1829.0;914.0;915.0;92;0;11;13;4;25;39;1;17;1;56;17;2017;42.7211591;375;1187;267;264
01006000000;01060;01;ARABA/ÁLAVA;ARMIÑÓN;1294.4326;24606.0;-2.87183475;42.72326199;467.0;239.0;128.0;111.0;6;-1;0;2;-1;3;1;0;0;0;6;-1;2017;42.11715481;47;165;27;37
01008000000;01080;01;ARABA/ÁLAVA;ARRATZUA-UBARRUNDIA;5740.9889;66639.0;-2.63878816;42.89116171;528.0;976.0;528.0;448.0;36;4;3;9;1;8;11;1;9;0;24;2;2017;44.89241803;175;659;142;105
01009000000;01090;01;ARABA/ÁLAVA;ASPARRENA;6533.64;53712.0;-2.31670754;42.88968768;602.0;1640.0;823.0;817.0;81;2;14;24;2;18;21;7;21;3;41;9;2017;44.86768293;290;1076;274;192
01010000000;01100;01;ARABA/ÁLAVA;AYALA/AIARA;14074.15;64072.0;-3.04306746;43.07768283;306.0;2969.0;1508.0;1461.0;119;2;19;27;1;27;43;2;18;7;85;7;2017;41.96699225;645;1890;434;468
01011000000;01110;01;ARABA/ÁLAVA;BAÑOS DE EBRO/MAÑUETA;945.9752;18610.0;-2.67863583;42.52925602;421.0;306.0;167.0;139.0;8;-1;0;1;2;2;3;3;1;-1;4;-1;2017;49.28104575;38;197;71;15
01013000000;01130;01;ARABA/ÁLAVA;BARRUNDIA;9742.34;57432.0;-2.49407452;42.91537538;575.0;898.0;502.0;396.0;21;0;5;7;1;1;7;1;3;2;15;0;2017;45.79287305;165;581;152;96
01014000000;01140;01;ARABA/ÁLAVA;BERANTEVILLA;3573.0031;38711.0;-2.85971414;42.68227191;471.0;443.0;236.0;207.0;19;1;4;5;-1;6;3;3;4;1;7;4;2017;48.18510158;66;259;118;46
01016000000;01160;01;ARABA/ÁLAVA;BERNEDO;13044.2902;85973.0;-2.49825439;42.62676989;710.0;504.0;299.0;205.0;24;1;6;8;1;7;1;2;3;1;13;5;2017;50.01984127;66;311;127;49
01017000000;01170;01;ARABA/ÁLAVA;CAMPEZO/KANPEZU;8536.0875;53461.0;-2.35207693;42.66971209;578.0;1048.0;556.0;492.0;61;0;16;15;4;11;15;3;16;1;37;4;2017;48.00572519;156;658;234;107
01018000000;01180;01;ARABA/ÁLAVA;ZIGOITIA;10206.9376;48596.0;-2.73033002;42.96210609;585.0;1766.0;960.0;806.0;39;1;2;8;1;14;13;-1;5;3;26;5;2017;44.79275198;323;1181;262;221
01019000000;01190;01;ARABA/ÁLAVA;KRIPAN;1251.599;15980.0;-2.51621636;42.59082439;691.0;184.0;98.0;86.0;4;-1;0;2;0;0;2;1;1;-1;2;-1;2017;47.875;31;111;42;17
01020000000;01200;01;ARABA/ÁLAVA;KUARTANGO;8403.4771;44173.0;-2.88438243;42.87006411;594.0;372.0;216.0;156.0;11;0;2;4;-1;2;3;1;2;0;6;2;2017;50.72311828;45;243;84;35
01021000000;01210;01;ARABA/ÁLAVA;ELBURGO/BURGELU;3209.3031;58514.0;-2.54601815;42.84940575;547.0;607.0;319.0;288.0;15;0;4;3;0;3;5;0;4;1;10;-1;2017;42.7199341;113;434;60;69
01022000000;01220;01;ARABA/ÁLAVA;ELCIEGO;1632.3129;21825.0;-2.61723872;42.51420738;451.0;1030.0;514.0;516.0;58;5;15;10;5;16;7;27;4;1;21;5;2017;45.46019417;184;635;211;127
01023000000;01230;01;ARABA/ÁLAVA;ELVILLAR/BILAR;1750.2228;21190.0;-2.54441267;42.56842577;581.0;353.0;173.0;180.0;12;0;2;1;1;3;5;5;1;-1;4;2;2017;46.7592068;58;215;80;32
01027000000;01250;01;ARABA/ÁLAVA;IRURAIZ-GAUNA;4712.8628;81139.0;-2.47396549;42.83108571;634.0;530.0;289.0;241.0;12;0;1;5;0;4;2;-1;2;2;8;0;2017;45.65471698;83;368;79;48
01028000000;01260;01;ARABA/ÁLAVA;LABASTIDA/BASTIDA;3816.9756;35481.0;-2.79288705;42.59076105;554.0;1454.0;762.0;692.0;111;3;19;25;9;35;20;39;8;6;42;16;2017;43.27647868;292;916;246;203
01030000000;01280;01;ARABA/ÁLAVA;LAGRÁN;4562.02;34064.0;-2.58423377;42.62621464;751.0;166.0;92.0;74.0;7;-1;3;2;1;1;0;-1;2;2;3;-1;2017;55.84939759;11;101;54;10
01031000000;01290;01;ARABA/ÁLAVA;LAGUARDIA;8108.514;84436.0;-2.58411693;42.55236655;630.0;1474.0;763.0;711.0;68;2;18;13;2;18;15;12;5;3;41;7;2017;46.14179104;227;967;280;156
01032000000;01300;01;ARABA/ÁLAVA;LANCIEGO/LANTZIEGO;2419.6239;26300.0;-2.51278162;42.5624416;542.0;673.0;345.0;328.0;47;3;12;6;2;17;7;17;5;2;16;7;2017;46.16196137;116;405;152;85
01033000000;01310;01;ARABA/ÁLAVA;LAPUEBLA DE LABARCA;598.7767;12420.0;-2.57209001;42.49441468;431.0;859.0;448.0;411.0;64;2;14;12;2;17;17;30;4;0;20;10;2017;45.54365541;148;549;162;98
01034000000;01320;01;ARABA/ÁLAVA;LEZA;992.2543;14579.0;-2.63459428;42.56469687;569.0;203.0;100.0;103.0;7;1;2;2;0;0;2;5;-1;0;1;1;2017;49.07881773;34;117;52;25
01036000000;01340;01;ARABA/ÁLAVA;LAUDIO/LLODIO;3756.0;27576.0;-2.96256495;43.1425188;123.0;18133.0;8965.0;9168.0;1252;34;228;245;33;354;358;34;162;73;818;165;2017;47.2546738;2690;11409;4034;1788
01037000000;01350;01;ARABA/ÁLAVA;ARRAIA-MAEZTU;12310.7942;59163.0;-2.44663872;42.74000217;658.0;725.0;404.0;321.0;32;0;6;10;0;9;7;1;5;2;21;3;2017;47.17793103;119;442;164;94
01039000000;01360;01;ARABA/ÁLAVA;MOREDA DE ÁLAVA/MOREDA ARABA;867.1106;12022.0;-2.40841718;42.52479167;461.0;230.0;115.0;115.0;14;1;2;5;3;0;3;-1;2;3;7;2;2017;50.7;19;155;56;13
01041000000;01380;01;ARABA/ÁLAVA;NAVARIDAS;891.6398;11775.0;-2.62479544;42.5450594;535.0;226.0;132.0;94.0;3;-1;1;-1;-1;2;-1;2;-1;-1;1;-1;2017;45.65929204;28;159;39;19
01042000000;01390;01;ARABA/ÁLAVA;OKONDO;2979.23;34703.0;-3.0190268229;43.1615512963;135.0;1155.0;600.0;555.0;54;2;7;13;1;14;17;3;8;4;33;6;2017;42.74718615;219;761;175;166
01043000000;01400;01;ARABA/ÁLAVA;OYÓN-OION;4517.7474;42025.0;-2.43775585;42.50626162;433.0;3338.0;1693.0;1645.0;396;22;82;87;26;106;73;97;49;24;151;75;2017;40.23666866;808;2065;465;564
01044000000;01410;01;ARABA/ÁLAVA;PEÑACERRADA-URIZAHARRA;6217.54;42084.0;-2.71402821;42.64417512;752.0;264.0;156.0;108.0;6;0;0;2;-1;3;1;-1;0;1;5;-1;2017;49.62878788;28;181;55;17
01046000000;01430;01;ARABA/ÁLAVA;ERRIBERAGOITIA/RIBERA ALTA;11978.2131;83147.0;-2.91080642;42.80074682;545.0;736.0;420.0;316.0;29;-1;2;6;1;10;10;0;0;1;28;0;2017;45.50815217;132;485;119;93
01047000000;01440;01;ARABA/ÁLAVA;RIBERA BAJA/ERRIBERA BEITIA;2536.0438;30506.0;-2.91704002;42.71339792;483.0;1375.0;748.0;627.0;66;3;9;7;3;29;15;4;8;3;37;14;2017;40.63709091;317;902;156;212
01049000000;01460;01;ARABA/ÁLAVA;AÑANA;2192.3285;21681.0;-2.98601634;42.8012318;574.0;156.0;89.0;67.0;5;0;1;0;-1;2;2;-1;0;1;4;-1;2017;51.83333333;11;106;39;10
01051000000;01470;01;ARABA/ÁLAVA;AGURAIN/SALVATIERRA;3776.9884;37786.0;-2.38874391;42.85002265;605.0;5025.0;2502.0;2523.0;377;15;61;78;16;119;88;18;72;18;212;57;2017;41.33850746;1066;3284;675;783
01052000000;01480;01;ARABA/ÁLAVA;SAMANIEGO;1063.761;16532.0;-2.67904862;42.56735197;571.0;323.0;163.0;160.0;3;-1;1;1;-1;1;0;-1;-1;-1;2;1;2017;50.64086687;41;194;88;23
01053000000;01490;01;ARABA/ÁLAVA;SAN MILLÁN/DONEMILIAGA;8540.58;107242.0;-2.37748902;42.87382571;600.0;709.0;394.0;315.0;26;0;7;9;0;2;8;1;7;2;16;-1;2017;48.45275035;110;450;149;75
01054000000;01500;01;ARABA/ÁLAVA;URKABUSTAIZ;6084.8426;37107.0;-2.90661046;42.95304046;633.0;1330.0;699.0;631.0;48;1;14;9;2;14;8;8;4;4;26;6;2017;41.09924812;286;891;153;209
01055000000;01510;01;ARABA/ÁLAVA;VALDEGOVÍA/GAUBEA;23827.336;104431.0;-3.09884417;42.84756896;552.0;996.0;557.0;439.0;31;2;4;12;1;3;9;1;6;0;24;0;2017;51.53714859;112;626;258;73
01056000000;01520;01;ARABA/ÁLAVA;HARANA/VALLE DE ARANA;3912.1857;37971.0;-2.33104687;42.75289194;812.0;232.0;132.0;100.0;7;-1;2;4;0;1;0;0;2;1;4;0;2017;59.05603448;14;130;88;10
01057000000;01530;01;ARABA/ÁLAVA;VILLABUENA DE ÁLAVA/ESKUERNAGA;847.9289;14014.0;-2.66452938;42.54857804;483.0;300.0;152.0;148.0;9;0;0;3;2;1;3;1;1;1;5;1;2017;49.85666667;31;193;76;21
01058000000;01540;01;ARABA/ÁLAVA;LEGUTIO;4585.3184;37334.0;-2.64255929;42.9798744;570.0;1800.0;960.0;840.0;97;1;18;26;3;27;22;3;11;8;59;16;2017;43.04444444;329;1209;262;246
01059000000;01001;01;ARABA/ÁLAVA;VITORIA-GASTEIZ;27681.2008;111412.0;-2.67275685;42.85058789;539.0;246976.0;120500.0;126476.0;16592;507;3164;3263;511;4741;4406;543;1990;1221;10743;2095;2017;44.25998882;43237;159207;44532;29941
01060000000;01550;01;ARABA/ÁLAVA;YÉCORA/IEKORA;1880.2483;20919.0;-2.4700849;42.56923117;694.0;270.0;139.0;131.0;9;0;4;1;2;2;0;3;1;-1;2;3;2017;47.15925926;45;171;54;25
01061000000;01560;01;ARABA/ÁLAVA;ZALDUONDO;1187.86;21423.0;-2.34650825;42.88580971;612.0;190.0;106.0;84.0;7;-1;3;1;-1;1;2;-1;2;1;4;-1;2017;45.34210526;34;131;25;20
01062000000;01570;01;ARABA/ÁLAVA;ZAMBRANA;3950.6249;43865.0;-2.87806502;42.66112968;458.0;383.0;208.0;175.0;26;0;2;7;2;8;7;2;6;1;15;2;2017;47.51697128;56;253;74;41
01063000000;01580;01;ARABA/ÁLAVA;ZUIA;12248.6671;49689.0;-2.81862854;42.95597763;617.0;2316.0;1191.0;1125.0;60;2;7;18;2;12;19;0;10;0;45;5;2017;44.09067358;461;1507;348;261
01901000000;01245;01;ARABA/ÁLAVA;IRUÑA OKA/IRUÑA DE OCA;5325.0072;35113.0;-2.8147543;42.81819126;502.0;3264.0;1683.0;1581.0;184;8;29;35;4;55;53;7;27;6;112;32;2017;39.69209559;750;2175;339;519
01902000000;01305;01;ARABA/ÁLAVA;LANTARÓN;6748.9609;63204.0;-2.96649719;42.71657557;482.0;899.0;502.0;397.0;27;0;2;8;0;6;11;1;2;2;19;3;2017;48.67630701;119;595;185;74
02001000000;02010;02;ALBACETE;ABENGIBRE;3076.9225;25257.0;-1.54384487;39.2100078;634.0;748.0;359.0;389.0;40;2;6;10;2;8;12;13;4;3;18;2;2017;51.79946524;54;492;202;30
02002000000;02020;02;ALBACETE;ALATOZ;6385.5135;37232.0;-1.36097604;39.09494843;858.0;555.0;309.0;246.0;52;2;10;8;1;11;20;3;4;24;19;2;2017;52.59459459;66;303;186;43
02003000000;02001;02;ALBACETE;ALBACETE;112702.38;249581.0;-1.85574745;38.99588053;681.0;172816.0;84507.0;88309.0;15162;738;2631;2615;715;4225;4238;782;1271;870;10635;1604;2017;41.58705791;33063;115620;24133;22022
02004000000;02030;02;ALBACETE;ALBATANA;3052.2595;22578.0;-1.52275248;38.5708754;582.0;698.0;362.0;336.0;54;1;6;8;2;8;29;12;5;2;33;2;2017;51.86532951;76;414;208;46
02005000000;02040;02;ALBACETE;ALBOREA;7205.1825;36259.0;-1.39670449;39.27835442;706.0;697.0;357.0;340.0;78;4;11;20;2;19;22;16;9;7;45;1;2017;50.0;80;433;184;49
02006000000;02050;02;ALBACETE;ALCADOZO;9958.7;53730.0;-1.9802275;38.6489758;925.0;662.0;361.0;301.0;75;0;9;15;2;24;25;9;6;9;48;3;2017;50.32024169;90;373;199;53
02007000000;02060;02;ALBACETE;ALCALÁ DEL JÚCAR;14682.4446;51494.0;-1.42932697;39.1932018;547.0;1202.0;642.0;560.0;83;2;12;23;2;17;27;8;3;0;66;6;2017;51.51331115;119;733;350;82
02008000000;02070;02;ALBACETE;ALCARAZ;37053.3125;289056.0;-2.49034957;38.66425104;953.0;1414.0;721.0;693.0;151;6;27;31;7;40;40;15;6;13;108;9;2017;47.13719943;215;879;320;145
02009000000;02080;02;ALBACETE;ALMANSA;53191.1048;93239.0;-1.09414681;38.86968811;687.0;24566.0;12226.0;12340.0;2341;105;291;360;113;572;900;96;590;78;1321;256;2017;43.52511601;4251;16364;3951;2804
02010000000;02090;02;ALBACETE;ALPERA;17847.2745;56652.0;-1.23080245;38.95969094;852.0;2290.0;1189.0;1101.0;242;10;24;42;7;68;91;37;63;10;116;16;2017;45.369869;388;1393;509;240
02011000000;02100;02;ALBACETE;AYNA;14658.96;65701.0;-2.07053831;38.55217746;696.0;672.0;360.0;312.0;27;1;3;9;0;7;7;6;3;9;9;0;2017;58.31696429;35;357;280;24
02012000000;02110;02;ALBACETE;BALAZOTE;6515.3733;31749.0;-2.15096732;38.88396156;771.0;2350.0;1205.0;1145.0;196;9;27;30;6;67;57;33;31;9;117;6;2017;42.4506383;417;1521;412;252
02013000000;02120;02;ALBACETE;BALSA DE VES;7634.9273;39452.0;-1.19650012;39.26461253;751.0;136.0;80.0;56.0;10;1;0;2;0;2;5;1;2;0;5;2;2017;58.13970588;11;65;60;6
02014000000;02130;02;ALBACETE;EL BALLESTERO;13869.3693;49399.0;-2.45508633;38.84252196;1027.0;414.0;213.0;201.0;28;2;1;1;0;8;16;4;2;-1;20;2;2017;49.07004831;50;264;100;37
02015000000;02140;02;ALBACETE;BARRAX;18983.33;52801.0;-2.20045637;39.0456106;733.0;1872.0;950.0;922.0;233;7;17;32;13;74;90;22;42;8;142;19;2017;43.06036325;335;1216;321;203
02016000000;02150;02;ALBACETE;BIENSERVIDA;9073.437;56309.0;-2.61184243;38.51602097;898.0;615.0;322.0;293.0;95;7;12;22;4;15;35;19;4;5;64;3;2017;49.65528455;57;414;144;33
02017000000;02160;02;ALBACETE;BOGARRA;16601.4619;77106.0;-2.21253636;38.58025427;844.0;908.0;478.0;430.0;107;6;12;31;4;18;36;6;8;54;35;4;2017;56.52973568;76;461;371;56
02018000000;02170;02;ALBACETE;BONETE;12505.526;55720.0;-1.34830324;38.86950589;886.0;1103.0;562.0;541.0;113;4;12;20;7;27;43;24;20;5;54;10;2017;45.96464189;158;726;219;104
02019000000;02180;02;ALBACETE;EL BONILLO;50266.0;154331.0;-2.54023691;38.95012362;1062.0;2852.0;1464.0;1388.0;272;3;22;51;15;59;122;35;16;140;75;6;2017;46.79978962;402;1808;642;206
02020000000;02190;02;ALBACETE;CARCELÉN;7536.3731;38287.0;-1.30876708;39.10231176;911.0;521.0;286.0;235.0;39;1;2;8;2;9;17;1;0;3;34;1;2017;54.63147793;60;258;203;35
02021000000;02200;02;ALBACETE;CASAS DE JUAN NÚÑEZ;8898.2779;42030.0;-1.55799035;39.10160749;704.0;1291.0;679.0;612.0;111;10;14;16;5;30;36;8;6;8;78;11;2017;45.28659954;203;813;275;141
02022000000;02210;02;ALBACETE;CASAS DE LÁZARO;11231.6773;70760.0;-2.23922378;38.7705758;942.0;358.0;203.0;155.0;27;2;3;6;1;6;9;3;4;1;18;1;2017;57.62569832;18;212;128;5
02023000000;02220;02;ALBACETE;CASAS DE VES;12509.4606;67921.0;-1.33454992;39.25946122;707.0;628.0;328.0;300.0;49;3;8;6;2;14;16;4;-1;0;39;6;2017;54.02070064;57;362;209;26
02024000000;02230;02;ALBACETE;CASAS-IBÁÑEZ;10321.9713;56015.0;-1.47129143;39.28701686;708.0;4558.0;2323.0;2235.0;402;10;55;96;20;95;126;83;58;26;202;33;2017;44.2459412;774;2954;830;510
02025000000;02240;02;ALBACETE;CAUDETE;14160.7632;49636.0;-0.9886912;38.70573009;554.0;10010.0;5091.0;4919.0;1012;42;137;172;60;277;324;76;145;78;609;104;2017;42.77272727;1887;6475;1648;1253
02026000000;02250;02;ALBACETE;CENIZATE;6326.0153;35204.0;-1.66113349;39.30332101;706.0;1192.0;603.0;589.0;109;3;10;21;6;28;41;26;6;4;70;3;2017;44.2852349;210;738;244;140
02027000000;02260;02;ALBACETE;CORRAL-RUBIO;9475.5686;42347.0;-1.4608525;38.83500072;870.0;342.0;184.0;158.0;18;-1;4;2;-1;4;8;2;-1;1;12;3;2017;51.59356725;38;199;105;24
02028000000;02270;02;ALBACETE;COTILLAS;1446.9288;15802.0;-2.50574545;38.43135915;947.0;130.0;66.0;64.0;14;-1;1;6;1;0;6;4;1;2;6;1;2017;57.79230769;6;81;43;3
02029000000;02280;02;ALBACETE;CHINCHILLA DE MONTE-ARAGÓN;67927.33;163946.0;-1.72602643;38.9210968;907.0;4213.0;2193.0;2020.0;341;22;43;68;12;103;93;24;43;21;221;32;2017;42.25112746;746;2849;618;525
02030000000;02290;02;ALBACETE;ELCHE DE LA SIERRA;23949.4125;84011.0;-2.04781376;38.44790893;630.0;3666.0;1840.0;1826.0;503;21;63;87;25;128;179;32;39;37;377;18;2017;45.24113475;578;2361;727;389
02031000000;02300;02;ALBACETE;FÉREZ;12614.1544;56948.0;-2.00953934;38.35567013;682.0;678.0;338.0;340.0;94;1;13;19;3;24;34;8;4;46;35;1;2017;49.85840708;97;389;192;57
02032000000;02310;02;ALBACETE;FUENSANTA;2395.6454;26368.0;-2.06725219;39.24466001;693.0;313.0;174.0;139.0;36;4;4;9;3;7;9;6;4;2;22;2;2017;53.15974441;23;188;102;14
02033000000;02320;02;ALBACETE;FUENTE-ÁLAMO;13339.011;45577.0;-1.43170411;38.69314229;820.0;2531.0;1331.0;1200.0;292;16;28;49;20;80;99;54;18;14;179;27;2017;44.30896879;450;1581;500;282
02034000000;02330;02;ALBACETE;FUENTEALBILLA;10829.379;64740.0;-1.54879364;39.26773579;670.0;1843.0;925.0;918.0;157;8;21;36;8;34;50;39;11;3;97;7;2017;45.24525231;291;1171;381;190
02035000000;02340;02;ALBACETE;LA GINETA;13676.75;49650.0;-1.99784496;39.11387916;691.0;2457.0;1258.0;1199.0;208;6;30;40;13;66;53;12;22;14;143;17;2017;42.40740741;427;1669;361;315
02036000000;02350;02;ALBACETE;GOLOSALVO;2817.6676;24505.0;-1.63626863;39.23996013;740.0;110.0;59.0;51.0;13;-1;3;5;-1;1;4;1;2;-1;10;-1;2017;56.8;8;68;34;5
02037000000;02360;02;ALBACETE;HELLÍN;78118.8703;149825.0;-1.70344921;38.51218953;570.0;30184.0;15061.0;15123.0;3386;182;461;523;209;847;1164;690;438;152;1929;177;2017;41.91091307;5769;19819;4596;3626
02038000000;02370;02;ALBACETE;LA HERRERA;6342.58;42320.0;-2.12637236;38.9621774;714.0;341.0;177.0;164.0;37;1;2;8;2;7;17;11;3;-1;23;0;2017;49.91788856;26;230;85;20
02039000000;02380;02;ALBACETE;HIGUERUELA;20545.4904;86388.0;-1.44535609;38.96455026;1041.0;1196.0;619.0;577.0;62;2;7;8;3;14;28;6;1;3;48;4;2017;47.55602007;184;718;294;115
02040000000;02390;02;ALBACETE;HOYA-GONZALO;11457.4972;48066.0;-1.55687053;38.95787352;929.0;643.0;344.0;299.0;46;1;5;10;3;9;18;3;1;5;32;5;2017;49.24416796;81;389;173;48
02041000000;02400;02;ALBACETE;JORQUERA;6797.0751;57182.0;-1.52061391;39.17457441;624.0;378.0;205.0;173.0;37;1;7;9;1;5;14;6;6;5;20;-1;2017;55.48941799;35;202;141;22
02042000000;02410;02;ALBACETE;LETUR;26356.0627;81881.0;-2.10096881;38.36632081;735.0;948.0;461.0;487.0;153;6;9;47;6;22;63;9;4;14;123;3;2017;50.77848101;110;588;250;54
02043000000;02420;02;ALBACETE;LEZUZA;36090.3503;86191.0;-2.35387427;38.94878996;913.0;1412.0;729.0;683.0;119;3;18;28;5;21;44;29;16;7;55;12;2017;49.92917847;152;879;381;82
02044000000;02430;02;ALBACETE;LIÉTOR;31178.91;78803.0;-1.95479319;38.54083745;641.0;1240.0;646.0;594.0;196;12;17;35;9;40;83;31;9;12;135;9;2017;51.23790323;139;741;360;79
02045000000;02440;02;ALBACETE;MADRIGUERAS;7334.55;35851.0;-1.7997012;39.23680339;688.0;4647.0;2391.0;2256.0;402;15;61;76;12;85;153;99;61;90;130;22;2017;44.6832365;782;2926;939;545
02046000000;02450;02;ALBACETE;MAHORA;10814.91;48081.0;-1.72481837;39.21303088;663.0;1360.0;698.0;662.0;138;10;11;34;0;43;40;29;15;44;47;3;2017;45.21544118;217;863;280;151
02047000000;02460;02;ALBACETE;MASEGOSO;10387.0257;42914.0;-2.31511768;38.71877813;1108.0;115.0;63.0;52.0;6;-1;1;1;1;1;2;-1;1;-1;5;-1;2017;61.71304348;4;62;49;3
02048000000;02470;02;ALBACETE;MINAYA;6983.1234;44098.0;-2.31961973;39.27118701;723.0;1538.0;809.0;729.0;108;4;9;23;4;30;38;19;6;42;35;6;2017;48.90962289;189;959;390;125
02049000000;02480;02;ALBACETE;MOLINICOS;14358.8298;71840.0;-2.23898151;38.46778179;851.0;863.0;442.0;421.0;83;2;12;20;3;12;34;6;3;4;68;2;2017;56.22943221;64;472;327;40
02050000000;02490;02;ALBACETE;MONTALVOS;2477.9315;23450.0;-2.02769341;39.16721439;709.0;102.0;56.0;46.0;2;-1;1;1;-1;0;-1;0;-1;-1;2;-1;2017;56.57843137;6;63;33;6
02051000000;02500;02;ALBACETE;MONTEALEGRE DEL CASTILLO;17779.3485;54887.0;-1.32487672;38.78717469;810.0;2057.0;1043.0;1014.0;161;7;28;20;9;51;46;16;51;7;69;18;2017;47.104035;304;1277;476;183
02052000000;02510;02;ALBACETE;MOTILLEJA;2382.44;24700.0;-1.79025762;39.17948885;676.0;549.0;293.0;256.0;53;2;8;13;0;9;21;10;2;5;30;6;2017;49.22040073;70;340;139;42
02053000000;02520;02;ALBACETE;MUNERA;22942.7623;58755.0;-2.4830388;39.03954575;929.0;3572.0;1817.0;1755.0;248;8;30;32;8;60;110;48;19;79;87;15;2017;46.29003359;560;2222;790;332
02054000000;02530;02;ALBACETE;NAVAS DE JORQUERA;4225.9722;26041.0;-1.7189485;39.28099513;708.0;523.0;270.0;253.0;51;6;6;11;1;7;20;14;4;13;14;6;2017;46.73422562;62;337;124;41
02055000000;02540;02;ALBACETE;NERPIO;43578.1242;98049.0;-2.30224029;38.14824043;1085.0;1277.0;700.0;577.0;147;6;20;38;5;20;58;13;9;14;105;6;2017;50.67188724;160;746;371;86
02056000000;02550;02;ALBACETE;ONTUR;5438.1594;30462.0;-1.49888166;38.61472661;653.0;2072.0;1037.0;1035.0;173;7;35;30;10;42;49;38;20;12;95;8;2017;47.40733591;291;1278;503;189
02057000000;02560;02;ALBACETE;OSSA DE MONTIEL;24350.2479;69150.0;-2.74272664;38.96201035;898.0;2411.0;1191.0;1220.0;265;8;24;58;15;65;95;18;37;13;190;7;2017;46.77353795;349;1522;540;227
02058000000;02570;02;ALBACETE;PATERNA DEL MADERA;11233.8382;53946.0;-2.34555766;38.59729435;1126.0;359.0;192.0;167.0;34;1;3;7;1;8;14;3;16;3;11;1;2017;55.30083565;28;211;120;18
02059000000;02590;02;ALBACETE;PEÑASCOSA;18925.8047;106221.0;-2.41040499;38.67153536;1169.0;328.0;177.0;151.0;27;3;6;2;0;7;9;5;1;1;18;2;2017;54.10670732;21;207;100;13
02060000000;02580;02;ALBACETE;PEÑAS DE SAN PEDRO;15872.36;73286.0;-2.00212787;38.72688881;1010.0;1436.0;836.0;600.0;106;5;12;30;4;23;32;8;10;6;75;7;2017;50.71587744;112;967;357;70
02061000000;02600;02;ALBACETE;PÉTROLA;7460.7346;40804.0;-1.55549981;38.82629814;870.0;719.0;368.0;351.0;46;2;13;10;1;8;12;4;9;3;26;4;2017;53.13212796;68;427;224;41
02062000000;02610;02;ALBACETE;POVEDILLA;4942.7325;35557.0;-2.60393627;38.70163971;872.0;452.0;243.0;209.0;52;2;7;12;0;7;24;8;8;9;26;1;2017;52.15707965;38;290;124;22
02063000000;02630;02;ALBACETE;POZOHONDO;13648.62;49358.0;-1.91133356;38.721122;871.0;1653.0;865.0;788.0;150;7;24;32;4;37;46;12;11;8;109;10;2017;50.08590442;197;993;463;122
02064000000;02620;02;ALBACETE;POZO-LORENTE;8095.5291;36474.0;-1.50647855;39.07663024;769.0;414.0;215.0;199.0;41;0;12;9;1;8;11;4;3;2;32;0;2017;54.6763285;26;243;145;8
02065000000;02640;02;ALBACETE;POZUELO;13397.79;48394.0;-2.10117384;38.80969625;845.0;514.0;271.0;243.0;42;2;4;5;0;7;24;3;0;4;32;3;2017;52.09727626;46;323;145;28
02066000000;02650;02;ALBACETE;LA RECUEJA;2973.9107;39019.0;-1.48988779;39.17688319;542.0;260.0;135.0;125.0;19;1;3;5;-1;5;5;4;-1;0;15;-1;2017;55.34615385;28;132;100;12
02067000000;02660;02;ALBACETE;RIÓPAR;8092.005;55582.0;-2.41839311;38.4998099;1126.0;1391.0;712.0;679.0;132;4;16;33;3;31;45;21;4;6;96;5;2017;46.66786485;203;908;280;134
02068000000;02670;02;ALBACETE;ROBLEDO;12008.4392;51626.0;-2.44882682;38.75778452;1041.0;366.0;200.0;166.0;26;2;1;5;3;10;5;3;3;4;14;2;2017;48.80601093;37;240;89;23
02069000000;02680;02;ALBACETE;LA RODA;39889.13;127688.0;-2.15924796;39.20706504;708.0;15603.0;7887.0;7716.0;1394;66;199;208;49;426;446;167;179;38;860;150;2017;42.20797283;2939;10258;2406;1919
02070000000;02690;02;ALBACETE;SALOBRE;4952.8648;39261.0;-2.55057256;38.59195258;920.0;523.0;277.0;246.0;33;1;8;7;4;6;7;7;2;1;19;4;2017;51.75525813;72;265;186;42
02071000000;02700;02;ALBACETE;SAN PEDRO;8311.597;37014.0;-2.186211;38.82654004;844.0;1179.0;600.0;579.0;112;7;8;31;7;25;34;17;4;10;72;9;2017;47.77268872;145;771;263;75
02072000000;02710;02;ALBACETE;SOCOVOS;13860.6617;64917.0;-1.98469065;38.33202632;734.0;1788.0;915.0;873.0;266;4;49;46;10;56;101;42;22;17;170;15;2017;49.38534676;211;1111;466;126
02073000000;02720;02;ALBACETE;TARAZONA DE LA MANCHA;21268.09;67722.0;-1.91280979;39.26539647;713.0;6363.0;3221.0;3142.0;704;24;108;138;25;177;232;175;74;28;371;56;2017;43.96275342;1157;3969;1237;722
02074000000;02730;02;ALBACETE;TOBARRA;32464.95;79846.0;-1.69282296;38.5922733;652.0;7754.0;3941.0;3813.0;722;29;102;132;35;204;220;134;99;34;407;48;2017;44.39515089;1353;4861;1540;855
02075000000;02740;02;ALBACETE;VALDEGANGA;7065.62;42767.0;-1.67646922;39.13545152;667.0;1958.0;999.0;959.0;187;12;30;32;13;47;53;18;23;45;87;14;2017;47.90245148;270;1198;490;168
02076000000;02750;02;ALBACETE;VIANOS;12803.519;91378.0;-2.50149079;38.632307;1118.0;359.0;185.0;174.0;38;3;6;3;7;6;13;6;2;1;26;3;2017;51.56545961;35;226;98;19
02077000000;02760;02;ALBACETE;VILLA DE VES;5753.568;35387.0;-1.25897631;39.22231541;744.0;59.0;33.0;26.0;4;-1;-1;1;-1;2;1;-1;-1;-1;4;-1;2017;55.25423729;5;36;18;2
02078000000;02770;02;ALBACETE;VILLALGORDO DEL JÚCAR;4668.4938;32688.0;-2.06309183;39.29598679;683.0;1125.0;592.0;533.0;55;3;8;18;2;12;12;7;3;4;38;3;2017;47.81422222;159;690;276;100
02079000000;02780;02;ALBACETE;VILLAMALEA;12799.1093;63499.0;-1.59908353;39.36160785;739.0;4124.0;2068.0;2056.0;320;14;51;54;10;81;110;89;48;16;151;16;2017;44.01551891;703;2647;774;438
02080000000;02790;02;ALBACETE;VILLAPALACIOS;8747.7445;41446.0;-2.63505947;38.57467359;837.0;594.0;309.0;285.0;56;2;10;16;1;7;20;7;5;2;38;4;2017;51.72558923;58;364;172;28
02081000000;02800;02;ALBACETE;VILLARROBLEDO;86240.7816;140710.0;-2.60714311;39.26755792;728.0;25317.0;12541.0;12776.0;2157;128;295;312;117;682;623;478;201;115;1230;133;2017;41.87044279;4830;16539;3948;3111
02082000000;02810;02;ALBACETE;VILLATOYA;1882.3517;21678.0;-1.33858599;39.33385264;409.0;107.0;63.0;44.0;9;-1;0;6;-1;2;1;1;-1;0;7;1;2017;57.14953271;6;68;33;4
02083000000;02820;02;ALBACETE;VILLAVALIENTE;3484.1712;30502.0;-1.45799642;39.12645758;726.0;219.0;129.0;90.0;12;-1;1;2;-1;3;6;0;-1;-1;11;1;2017;56.57077626;11;128;80;5
02084000000;02830;02;ALBACETE;VILLAVERDE DE GUADALIMAR;6907.9679;39421.0;-2.5176095;38.45619162;789.0;349.0;183.0;166.0;45;1;3;15;2;6;18;7;0;2;34;2;2017;52.67048711;31;220;98;20
02085000000;02840;02;ALBACETE;VIVEROS;6536.6666;45479.0;-2.57590915;38.77363475;1012.0;338.0;175.0;163.0;24;1;1;2;1;5;14;3;1;-1;18;2;2017;53.56804734;23;216;99;16
02086000000;02850;02;ALBACETE;YESTE;51122.0829;120663.0;-2.31903072;38.36643865;878.0;2742.0;1402.0;1340.0;294;8;41;83;14;51;97;25;9;96;157;7;2017;54.40663749;257;1526;959;141
02901000000;02615;02;ALBACETE;POZO CAÑADA;11683.38;69208.0;-1.73622317;38.801361;830.0;2800.0;1409.0;1391.0;247;8;31;44;15;90;59;36;21;16;149;25;2017;43.06857143;549;1740;511;366
03001000000;03005;03;ALACANT/ALICANTE;L'ATZÚBIA;1466.9574;18376.0;-0.15173035;38.84743029;99.0;664.0;349.0;315.0;19;-1;1;6;2;5;5;4;1;1;13;-1;2017;55.73042169;50;368;246;34
03002000000;03010;03;ALACANT/ALICANTE;AGOST;6663.5352;40007.0;-0.63891979;38.43949316;331.0;4703.0;2343.0;2360.0;411;15;76;107;15;98;100;83;46;42;209;31;2017;43.94386562;831;3046;826;562
03003000000;03015;03;ALACANT/ALICANTE;AGRES;2583.659;20529.0;-0.51595543;38.78000404;719.0;549.0;292.0;257.0;35;1;6;15;1;6;6;0;8;3;23;1;2017;48.07285974;69;361;119;45
03004000000;03020;03;ALACANT/ALICANTE;AIGÜES;1847.2816;20622.0;-0.36258669;38.49887092;332.0;913.0;478.0;435.0;64;1;7;17;3;15;21;-1;3;7;50;4;2017;46.4381161;136;597;180;82
03005000000;03025;03;ALACANT/ALICANTE;ALBATERA;6154.27;34605.0;-0.86792141;38.17894636;15.0;11850.0;6062.0;5788.0;1072;24;141;205;46;290;366;137;283;74;505;73;2017;39.5892827;2519;7817;1514;1710
03006000000;03030;03;ALACANT/ALICANTE;ALCALALÍ;1439.7787;21582.0;-0.04160798;38.74965349;226.0;1276.0;631.0;645.0;47;6;9;14;1;4;13;1;2;7;32;5;2017;55.21159875;134;644;498;74
03007000000;03035;03;ALACANT/ALICANTE;ALCOCER DE PLANES;438.7155;9164.0;-0.40197036;38.79447224;345.0;230.0;118.0;112.0;17;1;3;3;-1;3;7;-1;4;1;12;-1;2017;50.02608696;24;149;57;12
03008000000;03040;03;ALACANT/ALICANTE;ALCOLEJA;1455.8836;19193.0;-0.33100925;38.67548564;735.0;185.0;95.0;90.0;16;-1;2;8;-1;2;4;0;2;2;12;-1;2017;55.58918919;15;108;62;14
03009000000;03045;03;ALACANT/ALICANTE;ALCOY/ALCOI;12986.0503;58858.0;-0.47318376;38.69836894;561.0;59106.0;28836.0;30270.0;5569;161;762;1215;176;1236;2019;117;1223;400;3474;355;2017;44.48771698;10202;38059;10845;6618
03010000000;03050;03;ALACANT/ALICANTE;ALFAFARA;1977.7677;18603.0;-0.55552339;38.77274828;580.0;405.0;196.0;209.0;22;1;2;4;2;6;7;1;4;2;14;1;2017;47.3654321;60;251;94;29
03011000000;03055;03;ALACANT/ALICANTE;L'ALFÀS DEL PI;1925.9507;20927.0;-0.1026002;38.58009496;89.0;18394.0;9084.0;9310.0;932;50;138;225;19;215;285;16;27;100;773;16;2017;45.19038817;3060;11656;3678;1905
03012000000;03060;03;ALACANT/ALICANTE;ALGORFA;1835.6476;29212.0;-0.79568423;38.08681637;23.0;2761.0;1380.0;1381.0;176;8;20;41;6;37;64;3;17;17;134;5;2017;49.37196668;415;1540;806;279
03013000000;03065;03;ALACANT/ALICANTE;ALGUEÑA;1843.3139;29544.0;-1.00303745;38.33800138;530.0;1372.0;683.0;689.0;117;2;17;27;4;36;31;11;37;4;55;10;2017;47.10131195;209;843;320;143
03014000000;03001;03;ALACANT/ALICANTE;ALICANTE/ALACANT;20126.5845;138902.0;-0.4831832;38.34548705;5.0;329988.0;160062.0;169926.0;29068;999;4898;7085;939;6731;8416;588;1587;3013;21654;2226;2017;43.17215778;59438;216657;53893;39220
03015000000;03070;03;ALACANT/ALICANTE;ALMORADÍ;4272.4031;53442.0;-0.79201713;38.10977991;10.0;20332.0;10306.0;10026.0;2105;88;365;450;90;532;580;169;273;269;1147;247;2017;39.89169782;4468;13130;2734;3092
03016000000;03075;03;ALACANT/ALICANTE;ALMUDAINA;882.0194;12317.0;-0.35370678;38.76155764;570.0;113.0;57.0;56.0;1;-1;-1;1;-1;-1;-1;-1;-1;1;-1;-1;2017;52.4159292;11;63;39;6
03017000000;03080;03;ALACANT/ALICANTE;L'ALQUERIA D'ASNAR;108.3702;9555.0;-0.42552267;38.77311802;363.0;496.0;231.0;265.0;35;-1;10;5;3;7;10;-1;12;2;20;1;2017;41.39717742;95;332;69;57
03018000000;03085;03;ALACANT/ALICANTE;ALTEA;3442.7986;30970.0;-0.05144236;38.59892497;60.0;21813.0;10702.0;11111.0;1418;43;239;352;27;344;413;27;53;165;1129;44;2017;44.343144;3682;14305;3826;2318
03019000000;03090;03;ALACANT/ALICANTE;ASPE;7057.09;38464.0;-0.76849107;38.34577266;234.0;20425.0;10271.0;10154.0;2098;101;349;475;57;482;634;283;433;187;980;215;2017;41.28200734;4136;13324;2965;2825
03020000000;03095;03;ALACANT/ALICANTE;BALONES;1125.0;17176.0;-0.34237388;38.73701039;670.0;128.0;65.0;63.0;16;0;4;5;-1;3;4;-1;-1;3;13;0;2017;52.53125;10;80;38;7
03021000000;03100;03;ALACANT/ALICANTE;BANYERES DE MARIOLA;5027.5886;39273.0;-0.65685684;38.71635902;812.0;7102.0;3551.0;3551.0;397;5;36;51;14;103;188;10;149;8;183;47;2017;43.60011264;1285;4535;1282;851
03022000000;03105;03;ALACANT/ALICANTE;BENASAU;904.039;16402.0;-0.34261264;38.68991329;705.0;157.0;75.0;82.0;10;-1;1;3;-1;4;2;-1;1;-1;9;-1;2017;54.56050955;14;87;56;8
03023000000;03110;03;ALACANT/ALICANTE;BENEIXAMA;3488.8204;26678.0;-0.76676743;38.70018533;592.0;1710.0;860.0;850.0;81;4;8;17;3;23;26;15;19;5;34;8;2017;46.53157895;259;1055;396;182
03024000000;03115;03;ALACANT/ALICANTE;BENEJÚZAR;932.7958;15599.0;-0.83819517;38.07806375;23.0;5372.0;2689.0;2683.0;511;20;83;122;23;105;158;28;75;78;301;29;2017;43.02494415;987;3423;962;646
03025000000;03120;03;ALACANT/ALICANTE;BENFERRI;1236.2348;16667.0;-0.9622579;38.14179352;56.0;1923.0;1011.0;912.0;156;6;30;33;5;39;43;16;24;14;95;7;2017;42.04524181;388;1213;322;279
03026000000;03125;03;ALACANT/ALICANTE;BENIARBEIG;740.3238;17593.0;-0.00130364;38.82193219;42.0;1919.0;978.0;941.0;136;2;21;39;3;29;42;1;8;15;106;6;2017;44.84054195;338;1213;368;212
03027000000;03130;03;ALACANT/ALICANTE;BENIARDÁ;1573.9453;21110.0;-0.21600764;38.68343356;464.0;183.0;91.0;92.0;8;-1;2;-1;1;4;1;-1;1;-1;7;-1;2017;52.30601093;16;116;51;10
03028000000;03135;03;ALACANT/ALICANTE;BENIARRÉS;2021.3756;20473.0;-0.37904234;38.82007885;385.0;1137.0;576.0;561.0;96;2;10;34;2;20;28;8;21;11;50;6;2017;51.46262093;126;682;329;62
03029000000;03140;03;ALACANT/ALICANTE;BENIGEMBLA;1845.4265;17576.0;-0.10982699;38.75633514;311.0;433.0;219.0;214.0;14;1;0;4;-1;4;5;-1;-1;1;12;1;2017;54.77136259;43;230;160;26
03030000000;03145;03;ALACANT/ALICANTE;BENIDOLEIG;748.4278;13133.0;-0.03173239;38.791917;124.0;1080.0;544.0;536.0;54;4;7;15;0;12;16;1;1;6;44;2;2017;51.29722222;136;609;335;83
03031000000;03150;03;ALACANT/ALICANTE;BENIDORM;3850.9874;39091.0;-0.1306853;38.53427136;11.0;66831.0;33195.0;33636.0;5010;174;847;1123;160;1147;1559;54;138;337;4383;98;2017;44.19588215;10426;44984;11421;6905
03032000000;03155;03;ALACANT/ALICANTE;BENIFALLIM;1368.8379;18200.0;-0.39922559;38.66273419;738.0;111.0;62.0;49.0;9;1;1;3;-1;2;2;-1;2;2;5;-1;2017;52.1981982;7;80;24;2
03033000000;03160;03;ALACANT/ALICANTE;BENIFATO;1188.0505;15536.0;-0.22888967;38.67369418;663.0;148.0;72.0;76.0;9;1;1;3;-1;-1;4;2;1;-1;6;-1;2017;49.79054054;20;88;40;9
03034000000;03165;03;ALACANT/ALICANTE;BENIJÓFAR;435.9954;8848.0;-0.73828051;38.0808408;22.0;3290.0;1614.0;1676.0;186;4;28;38;10;44;62;7;14;34;125;6;2017;49.26443769;462;1958;870;293
03035000000;03170;03;ALACANT/ALICANTE;BENILLOBA;953.8103;16495.0;-0.3908201;38.69955909;521.0;755.0;390.0;365.0;72;1;13;22;1;4;31;1;13;5;50;3;2017;52.70860927;73;453;229;42
03036000000;03175;03;ALACANT/ALICANTE;BENILLUP;337.8822;10655.0;-0.3789958;38.75380301;564.0;102.0;45.0;57.0;8;-1;1;2;-1;1;4;2;-1;-1;6;-1;2017;45.92156863;11;77;14;9
03037000000;03180;03;ALACANT/ALICANTE;BENIMANTELL;3790.5692;41220.0;-0.20984798;38.67659254;546.0;495.0;240.0;255.0;28;-1;7;5;-1;6;10;1;-1;1;26;-1;2017;48.25252525;67;319;109;47
03038000000;03185;03;ALACANT/ALICANTE;BENIMARFULL;556.3613;10384.0;-0.39099875;38.77584801;414.0;418.0;211.0;207.0;25;-1;5;7;-1;4;9;2;6;4;13;-1;2017;51.94497608;41;251;126;24
03039000000;03190;03;ALACANT/ALICANTE;BENIMASSOT;951.2727;14024.0;-0.291855;38.74905825;725.0;99.0;57.0;42.0;12;-1;2;8;-1;-1;2;1;1;1;9;-1;2017;53.31313131;7;65;27;2
03040000000;03195;03;ALACANT/ALICANTE;BENIMELI;350.4942;11959.0;-0.04146491;38.82296616;93.0;391.0;188.0;203.0;15;-1;1;4;-1;2;8;-1;-1;3;10;2;2017;50.70332481;53;219;119;42
03041000000;03200;03;ALACANT/ALICANTE;BENISSA;6970.7341;54032.0;0.05043358;38.7151969;254.0;10879.0;5340.0;5539.0;709;27;122;191;14;170;185;12;41;125;497;34;2017;46.66780035;1686;6754;2439;1093
03042000000;03205;03;ALACANT/ALICANTE;BENITACHELL/EL POBLE NOU DE BENITATXELL;1265.3812;16918.0;0.14459559;38.73292416;163.0;4020.0;2002.0;2018.0;128;7;20;40;5;33;23;3;7;14;94;10;2017;50.83159204;517;2252;1251;349
03043000000;03210;03;ALACANT/ALICANTE;BIAR;9816.5159;40760.0;-0.76597374;38.62996229;697.0;3650.0;1791.0;1859.0;250;0;25;62;6;51;106;7;90;13;117;23;2017;44.16794521;669;2307;674;441
03044000000;03215;03;ALACANT/ALICANTE;BIGASTRO;409.8141;13443.0;-0.89528476;38.06301558;23.0;6656.0;3353.0;3303.0;657;21;108;128;17;166;217;50;116;110;341;40;2017;40.52614183;1340;4408;908;897
03045000000;03220;03;ALACANT/ALICANTE;BOLULLA;1357.1512;16389.0;-0.11168494;38.67657681;213.0;414.0;215.0;199.0;9;-1;0;2;1;4;2;-1;-1;1;8;-1;2017;52.12318841;40;255;119;21
03046000000;03225;03;ALACANT/ALICANTE;BUSOT;3384.1908;27619.0;-0.42050568;38.4819618;312.0;2904.0;1483.0;1421.0;167;5;23;48;6;33;52;3;15;20;123;6;2017;45.95971074;493;1796;615;300
03047000000;03230;03;ALACANT/ALICANTE;CALP;2350.9119;28830.0;0.04453809;38.64526261;55.0;20804.0;10491.0;10313.0;1438;72;269;363;45;345;344;33;43;188;1133;41;2017;44.65871948;3448;13297;4059;2252
03048000000;03235;03;ALACANT/ALICANTE;CALLOSA D'EN SARRIÀ;3466.1654;30558.0;-0.12235041;38.65164066;250.0;7223.0;3682.0;3541.0;484;14;87;129;14;124;116;114;18;50;294;8;2017;43.13996954;1318;4711;1194;844
03049000000;03240;03;ALACANT/ALICANTE;CALLOSA DE SEGURA;2483.15;41196.0;-0.87933854;38.12258136;20.0;18625.0;9430.0;9195.0;1656;59;290;352;56;444;455;115;359;147;886;149;2017;39.93331544;4133;11862;2630;2893
03050000000;03245;03;ALACANT/ALICANTE;EL CAMPELLO;5526.7822;51303.0;-0.40086509;38.42754724;26.0;27604.0;13456.0;14148.0;1831;60;274;434;56;447;560;27;94;214;1417;79;2017;44.03231416;4919;17778;4907;3116
03051000000;03250;03;ALACANT/ALICANTE;CAMPO DE MIRRA/EL CAMP DE MIRRA;2181.5853;26539.0;-0.77925393;38.68719624;585.0;436.0;228.0;208.0;27;0;3;8;1;6;9;6;4;0;15;2;2017;45.9059633;66;293;77;40
03052000000;03255;03;ALACANT/ALICANTE;CAÑADA;1932.4451;24508.0;-0.80952172;38.67518917;556.0;1242.0;618.0;624.0;65;4;10;8;2;17;24;5;13;3;37;7;2017;43.96859903;245;771;226;165
03053000000;03260;03;ALACANT/ALICANTE;CASTALLA;11459.9725;56120.0;-0.67026538;38.59657643;669.0;9876.0;4988.0;4888.0;747;24;84;167;14;200;258;17;258;65;353;54;2017;43.28300932;1714;6524;1638;1170
03054000000;03265;03;ALACANT/ALICANTE;CASTELL DE CASTELLS;4592.1362;28212.0;-0.19391054;38.72499704;549.0;436.0;218.0;218.0;21;2;4;6;0;1;8;0;0;1;18;2;2017;54.82798165;45;233;158;33
03055000000;03270;03;ALACANT/ALICANTE;CATRAL;2000.8229;20313.0;-0.80464175;38.15964959;8.0;8620.0;4353.0;4267.0;796;27;113;173;23;234;226;42;226;68;403;57;2017;42.05;1774;5407;1439;1168
03056000000;03275;03;ALACANT/ALICANTE;COCENTAINA;5294.4709;38405.0;-0.44022067;38.74541202;433.0;11461.0;5799.0;5662.0;1047;30;134;226;25;226;406;22;252;82;602;89;2017;44.49096937;1905;7557;1999;1247
03057000000;03280;03;ALACANT/ALICANTE;CONFRIDES;3998.3328;30719.0;-0.26810894;38.68353731;780.0;221.0;127.0;94.0;16;-1;2;7;-1;6;1;-1;-1;1;13;2;2017;54.6199095;17;130;74;13
03058000000;03285;03;ALACANT/ALICANTE;COX;1670.97;35761.0;-0.88437585;38.13972138;16.0;7192.0;3698.0;3494.0;502;23;80;129;18;146;106;43;78;41;300;40;2017;40.2721079;1450;4754;988;1012
03059000000;03290;03;ALACANT/ALICANTE;CREVILLENT;10455.01;51135.0;-0.80855322;38.24881414;129.0;28836.0;14572.0;14264.0;3554;118;492;789;114;799;1242;109;1163;279;1688;315;2017;41.08596893;5915;18815;4106;4029
03060000000;03295;03;ALACANT/ALICANTE;QUATRETONDETA;1670.4812;18277.0;-0.31641906;38.72386675;620.0;109.0;62.0;47.0;7;-1;3;2;-1;1;1;-1;2;1;4;-1;2017;57.91743119;7;67;35;3
03061000000;03300;03;ALACANT/ALICANTE;DAYA NUEVA;709.3467;11032.0;-0.76103525;38.11371672;8.0;1684.0;843.0;841.0;163;7;26;44;7;31;48;10;22;14;101;16;2017;45.30938242;288;1018;378;179
03062000000;03305;03;ALACANT/ALICANTE;DAYA VIEJA;314.2879;7310.0;-0.73805702;38.1047248;6.0;713.0;369.0;344.0;37;1;5;9;2;6;14;3;3;6;23;2;2017;55.10238429;62;410;241;34
03063000000;03310;03;ALACANT/ALICANTE;DÉNIA;6617.916;86143.0;0.10661934;38.84122705;13.0;41568.0;20185.0;21383.0;3538;145;544;923;105;814;1007;54;225;459;2567;233;2017;43.31173018;7317;27739;6512;4646
03064000000;03315;03;ALACANT/ALICANTE;DOLORES;1870.1083;21304.0;-0.76969869;38.13897736;4.0;7302.0;3649.0;3653.0;711;24;100;165;29;181;212;47;171;77;352;64;2017;41.66721446;1472;4639;1191;997
03065000000;03320;03;ALACANT/ALICANTE;ELCHE/ELX;32650.14;91867.0;-0.69775581;38.26741662;82.0;228675.0;113345.0;115330.0;25592;800;3653;5436;753;5993;8957;763;7168;1985;13907;1769;2017;41.68961189;43970;152364;32341;29727
03066000000;03325;03;ALACANT/ALICANTE;ELDA;4578.8813;30557.0;-0.79611046;38.47878894;395.0;52620.0;25697.0;26923.0;6056;237;830;1208;204;1266;2311;150;2087;344;3013;462;2017;44.21069935;8874;34444;9302;5806
03067000000;03330;03;ALACANT/ALICANTE;FACHECA;1017.479;15760.0;-0.26771337;38.73467536;769.0;101.0;52.0;49.0;12;1;2;2;-1;1;6;0;1;2;9;-1;2017;54.0;4;65;32;4
03068000000;03335;03;ALACANT/ALICANTE;FAMORCA;972.4032;12929.0;-0.24604552;38.73219338;684.0;57.0;30.0;27.0;4;-1;1;3;-1;-1;0;-1;-1;0;4;-1;2017;60.94736842;1;34;22;1
03069000000;03340;03;ALACANT/ALICANTE;FINESTRAT;4225.3968;29962.0;-0.2117688;38.56697349;264.0;6292.0;3191.0;3101.0;331;11;49;86;12;79;94;2;12;19;294;4;2017;42.17959313;1087;4352;853;805
03070000000;03345;03;ALACANT/ALICANTE;FORMENTERA DEL SEGURA;433.1745;12939.0;-0.74649853;38.08423377;8.0;4064.0;2058.0;2006.0;314;9;45;81;18;75;86;16;44;37;206;11;2017;43.47588583;747;2629;688;475
03071000000;03350;03;ALACANT/ALICANTE;GATA DE GORGOS;2033.1876;20037.0;0.08427495;38.7732101;79.0;5804.0;2926.0;2878.0;398;11;59;111;9;100;108;15;31;58;258;36;2017;44.48311509;1006;3725;1073;620
03072000000;03355;03;ALACANT/ALICANTE;GAIANES;957.1426;12485.0;-0.40755768;38.81311114;420.0;448.0;235.0;213.0;36;1;4;13;3;7;8;2;8;2;23;1;2017;48.05803571;62;291;95;50
03073000000;03360;03;ALACANT/ALICANTE;GORGA;910.6836;18983.0;-0.35671735;38.71833445;542.0;273.0;152.0;121.0;26;-1;2;8;-1;3;13;3;6;1;16;-1;2017;50.22344322;21;180;72;13
03074000000;03365;03;ALACANT/ALICANTE;GRANJA DE ROCAMORA;716.89;41219.0;-0.89001674;38.15262779;17.0;2469.0;1287.0;1182.0;173;6;24;44;6;49;44;10;33;11;106;13;2017;40.86148238;476;1614;379;342
03075000000;03370;03;ALACANT/ALICANTE;EL CASTELL DE GUADALEST;1596.7986;21129.0;-0.19735239;38.67694213;571.0;205.0;103.0;102.0;10;-1;1;3;-1;1;5;1;-1;-1;8;1;2017;51.01463415;15;147;43;6
03076000000;03375;03;ALACANT/ALICANTE;GUARDAMAR DEL SEGURA;3393.72;33048.0;-0.65477035;38.08988071;27.0;14716.0;7202.0;7514.0;956;23;148;215;30;262;278;28;75;93;749;11;2017;45.06414787;2548;9121;3047;1654
03077000000;03380;03;ALACANT/ALICANTE;EL FONDÓ DE LES NEUS/HONDÓN DE LAS NIEVES;6885.1772;36777.0;-0.85486637;38.30855695;367.0;2436.0;1224.0;1212.0;173;5;26;45;4;41;52;20;36;11;87;19;2017;51.32676519;272;1484;680;176
03078000000;03385;03;ALACANT/ALICANTE;HONDÓN DE LOS FRAILES;1254.5898;14915.0;-0.92699487;38.27358559;413.0;1102.0;567.0;535.0;59;-1;10;18;1;16;14;3;17;7;28;4;2017;54.42740472;111;623;368;71
03079000000;03390;03;ALACANT/ALICANTE;IBI;6252.4351;30903.0;-0.57466482;38.62745682;754.0;23423.0;11747.0;11676.0;2030;64;219;371;65;453;858;69;806;109;892;154;2017;43.07099859;4173;15498;3752;2736
03080000000;03395;03;ALACANT/ALICANTE;JACARILLA;1220.4205;18436.0;-0.86635637;38.06070041;25.0;1953.0;997.0;956.0;153;3;18;39;8;31;54;8;30;24;79;12;2017;44.47670251;348;1223;382;224
03081000000;03400;03;ALACANT/ALICANTE;XALÓ;3458.6303;31489.0;-0.01192072;38.74069906;188.0;2636.0;1306.0;1330.0;147;3;18;50;3;27;46;2;10;15;115;5;2017;48.2185129;388;1582;666;260
03082000000;03405;03;ALACANT/ALICANTE;JÁVEA/XÀBIA;6859.0349;52582.0;0.16340067;38.78925837;48.0;27060.0;13441.0;13619.0;1561;28;270;434;52;346;431;17;53;232;1138;121;2017;45.77923134;4483;16740;5837;2972
03083000000;03410;03;ALACANT/ALICANTE;JIJONA/XIXONA;16376.0691;68034.0;-0.50791278;38.53902509;462.0;6895.0;3349.0;3546.0;303;20;59;85;12;51;76;10;95;18;166;14;2017;45.81725888;1071;4452;1372;721
03084000000;03415;03;ALACANT/ALICANTE;LORCHA/L'ORXA;3176.4696;24599.0;-0.31125116;38.84403413;267.0;606.0;299.0;307.0;46;-1;4;15;2;11;14;3;13;3;26;1;2017;53.11056106;49;366;191;28
03085000000;03420;03;ALACANT/ALICANTE;LLÍBER;2193.274;26922.0;0.006304;38.74347137;191.0;951.0;468.0;483.0;24;-1;3;5;-1;6;10;1;-1;6;16;1;2017;54.02418507;86;543;322;55
03086000000;03425;03;ALACANT/ALICANTE;MILLENA;977.3401;16190.0;-0.36337482;38.73087323;635.0;230.0;125.0;105.0;12;-1;4;2;-1;2;4;1;2;1;8;-1;2017;52.23043478;19;157;54;10
03088000000;03430;03;ALACANT/ALICANTE;MONFORTE DEL CID;7952.2261;49689.0;-0.72989187;38.37928097;228.0;7592.0;3967.0;3625.0;471;12;100;129;15;112;103;92;67;61;214;37;2017;40.55637513;1466;5189;937;970
03089000000;03435;03;ALACANT/ALICANTE;MONÓVAR/MONÒVER;15235.6842;54964.0;-0.83780533;38.43721579;390.0;12177.0;6073.0;6104.0;1425;56;185;307;45;283;549;38;571;83;631;102;2017;44.5106348;2045;7874;2258;1383
03090000000;03440;03;ALACANT/ALICANTE;MUTXAMEL;4765.3187;34880.0;-0.44522331;38.41368396;63.0;24778.0;12352.0;12426.0;1671;66;276;389;56;434;450;49;109;181;1270;62;2017;40.53402212;5196;16650;2932;3412
03091000000;03445;03;ALACANT/ALICANTE;MURLA;581.336;11828.0;-0.08306874;38.75958883;283.0;477.0;226.0;251.0;24;0;4;10;-1;7;3;0;1;7;15;1;2017;56.89727463;49;248;180;30
03092000000;03450;03;ALACANT/ALICANTE;MURO DE ALCOY;3024.3942;31128.0;-0.4357044;38.77998192;391.0;9319.0;4620.0;4699.0;704;19;103;135;15;171;261;23;184;50;405;42;2017;41.90235004;1850;6081;1388;1273
03093000000;03455;03;ALACANT/ALICANTE;NOVELDA;7572.424;42521.0;-0.76539782;38.38606382;241.0;25868.0;12825.0;13043.0;2232;84;363;540;69;518;658;347;468;199;998;220;2017;42.48221741;4733;17113;4022;3054
03094000000;03460;03;ALACANT/ALICANTE;LA NUCIA;2136.1299;30865.0;-0.12289748;38.61761623;216.0;18548.0;9366.0;9182.0;932;28;137;192;27;268;280;19;47;75;777;14;2017;42.97994393;3466;12013;3069;2362
03095000000;03465;03;ALACANT/ALICANTE;ONDARA;1041.3359;20045.0;0.01764367;38.82692459;36.0;6739.0;3377.0;3362.0;643;13;102;173;25;148;182;13;32;86;479;33;2017;41.68556166;1278;4474;987;889
03096000000;03470;03;ALACANT/ALICANTE;ONIL;4841.0481;33675.0;-0.6740463;38.62952092;701.0;7493.0;3739.0;3754.0;526;16;52;121;12;113;212;15;214;27;237;33;2017;43.33898305;1334;4964;1195;868
03097000000;03475;03;ALACANT/ALICANTE;ORBA;1772.9579;26196.0;-0.06371253;38.78039233;154.0;2035.0;994.0;1041.0;91;3;14;26;5;20;23;5;5;6;72;3;2017;52.05601966;264;1101;670;168
03098000000;03480;03;ALACANT/ALICANTE;ORXETA;2406.2327;30104.0;-0.2618598;38.56400384;176.0;760.0;385.0;375.0;51;2;11;10;2;11;15;1;3;4;39;4;2017;47.18815789;94;520;146;62
03099000000;03485;03;ALACANT/ALICANTE;ORIHUELA;36543.5923;232483.0;-0.94664572;38.08574117;25.0;76097.0;37829.0;38268.0;5166;180;761;1246;180;1261;1538;332;557;718;3224;335;2017;44.8621102;13107;47656;15334;8436
03100000000;03490;03;ALACANT/ALICANTE;PARCENT;1177.04;15015.0;-0.06446788;38.74571695;290.0;965.0;471.0;494.0;47;4;8;18;-1;8;9;2;1;9;34;1;2017;53.71917098;97;541;327;55
03101000000;03495;03;ALACANT/ALICANTE;PEDREGUER;2958.2241;24883.0;0.03432468;38.7935383;85.0;7435.0;3698.0;3737.0;572;26;88;155;10;121;172;9;70;54;397;42;2017;45.36812374;1251;4685;1499;831
03102000000;03500;03;ALACANT/ALICANTE;PEGO;5284.6658;33677.0;-0.11803172;38.84201714;82.0;9923.0;4960.0;4963.0;594;27;102;141;20;164;140;43;57;79;376;39;2017;46.57956263;1567;6129;2227;988
03103000000;03505;03;ALACANT/ALICANTE;PENÀGUILA;4992.4963;47903.0;-0.35881625;38.67944195;682.0;308.0;163.0;145.0;23;-1;4;4;1;10;4;-1;2;1;20;-1;2017;50.97727273;31;189;88;26
03104000000;03510;03;ALACANT/ALICANTE;PETRER;10409.0751;43769.0;-0.76953712;38.48480043;465.0;34533.0;17162.0;17371.0;4280;163;494;816;129;904;1774;47;1770;249;1937;277;2017;41.58781455;6822;23215;4496;4452
03105000000;03515;03;ALACANT/ALICANTE;EL PINÓS/PINOSO;12647.9009;59608.0;-1.04195399;38.40441177;591.0;7718.0;3896.0;3822.0;567;18;86;139;15;140;169;58;187;34;217;71;2017;43.20717803;1410;5041;1267;921
03106000000;03520;03;ALACANT/ALICANTE;PLANES;3886.7596;27974.0;-0.34478535;38.78583429;451.0;733.0;389.0;344.0;54;2;6;19;2;5;20;10;11;8;23;2;2017;53.0;72;447;214;39
03107000000;03525;03;ALACANT/ALICANTE;POLOP;2257.7261;22527.0;-0.12654723;38.62255314;239.0;4725.0;2437.0;2288.0;291;6;54;70;8;84;69;14;11;29;232;5;2017;42.16444444;898;3153;674;622
03109000000;03530;03;ALACANT/ALICANTE;RAFAL;162.2304;6374.0;-0.84889051;38.10480713;13.0;4322.0;2165.0;2157.0;397;18;54;92;13;103;117;28;49;72;214;34;2017;38.77533549;1011;2781;530;650
03110000000;03535;03;ALACANT/ALICANTE;EL RÀFOL D'ALMÚNIA;487.7576;12870.0;-0.05280018;38.82066727;87.0;631.0;322.0;309.0;22;0;2;8;-1;8;4;1;4;-1;17;0;2017;51.76703645;81;341;209;52
03111000000;03540;03;ALACANT/ALICANTE;REDOVÁN;944.7868;22932.0;-0.90524865;38.1140353;28.0;7811.0;4028.0;3783.0;841;36;120;191;23;209;262;56;123;113;486;63;2017;40.03674305;1667;5167;977;1129
03112000000;03545;03;ALACANT/ALICANTE;RELLEU;7687.2352;40730.0;-0.31086389;38.58727823;435.0;1118.0;575.0;543.0;51;1;6;19;-1;9;16;0;3;11;36;1;2017;51.38550984;129;687;302;83
03113000000;03550;03;ALACANT/ALICANTE;ROJALES;2788.68;37175.0;-0.7231866;38.08892037;8.0;16231.0;8201.0;8030.0;634;24;113;170;33;129;165;26;57;94;437;20;2017;53.81769454;1779;8624;5828;1157
03114000000;03555;03;ALACANT/ALICANTE;LA ROMANA;4329.3741;31883.0;-0.8960138;38.36742371;419.0;2377.0;1232.0;1145.0;153;3;27;41;3;43;36;33;35;7;65;13;2017;47.80563736;359;1471;547;234
03115000000;03560;03;ALACANT/ALICANTE;SAGRA;561.9059;11673.0;-0.06512199;38.81142807;103.0;393.0;198.0;195.0;16;-1;3;6;1;1;5;-1;2;3;9;2;2017;55.70483461;30;215;148;21
03116000000;03565;03;ALACANT/ALICANTE;SALINAS;6171.1716;32115.0;-0.91278122;38.52006995;493.0;1562.0;795.0;767.0;178;5;16;32;2;36;87;11;71;13;78;5;2017;44.65620999;250;1034;278;169
03117000000;03590;03;ALACANT/ALICANTE;SANET Y NEGRALS;394.1625;8049.0;-0.03373355;38.81916633;83.0;634.0;325.0;309.0;27;1;3;5;0;7;11;0;5;1;19;2;2017;52.36908517;76;362;196;44
03118000000;03570;03;ALACANT/ALICANTE;SAN FULGENCIO;2070.11;20939.0;-0.71879025;38.11222765;4.0;7646.0;3866.0;3780.0;399;5;57;104;15;90;128;17;40;38;269;35;2017;53.36345802;868;4103;2675;564
03119000000;03575;03;ALACANT/ALICANTE;SANT JOAN D'ALACANT;963.8765;13854.0;-0.43660694;38.40151192;40.0;23149.0;11171.0;11978.0;1643;49;276;365;50;396;507;29;83;180;1286;65;2017;42.0841937;4527;15171;3451;3006
03120000000;03580;03;ALACANT/ALICANTE;SAN MIGUEL DE SALINAS;5484.5342;29572.0;-0.78930554;37.97713811;87.0;5797.0;2909.0;2888.0;352;17;41;88;13;80;113;28;15;54;235;20;2017;48.04226324;881;3421;1495;571
03121000000;03595;03;ALACANT/ALICANTE;SANTA POLA;5816.0985;43087.0;-0.55528061;38.1931155;4.0;31137.0;15602.0;15535.0;2675;82;443;551;84;725;790;36;290;210;2025;114;2017;42.32289559;5773;20579;4785;3998
03122000000;03585;03;ALACANT/ALICANTE;SAN VICENTE DEL RASPEIG/SANT VICENT DEL RASPEIG;4055.084;38579.0;-0.52499072;38.39613348;107.0;57175.0;28303.0;28872.0;4770;173;815;978;143;1339;1322;95;407;510;3459;299;2017;39.98906865;11813;38517;6845;7961
03123000000;03600;03;ALACANT/ALICANTE;SAX;6348.3656;31468.0;-0.81692328;38.53849557;473.0;9737.0;4909.0;4828.0;981;43;120;193;32;217;376;27;355;53;427;119;2017;42.4654411;1802;6465;1470;1185
03124000000;03605;03;ALACANT/ALICANTE;SELLA;3872.053;29382.0;-0.27218087;38.60812245;412.0;579.0;306.0;273.0;29;-1;9;7;-1;5;8;2;2;2;22;1;2017;51.53713299;61;345;173;34
03125000000;03610;03;ALACANT/ALICANTE;SENIJA;478.6374;11096.0;0.04175328;38.72826598;231.0;578.0;293.0;285.0;37;1;4;8;-1;12;12;2;1;1;29;4;2017;46.79930796;92;345;141;59
03127000000;03620;03;ALACANT/ALICANTE;TÀRBENA;3167.0038;28630.0;-0.1019394;38.69363337;559.0;640.0;329.0;311.0;29;1;5;13;1;5;4;1;1;2;25;-1;2017;52.759375;72;372;196;36
03128000000;03625;03;ALACANT/ALICANTE;TEULADA;3225.0;30407.0;0.10231946;38.72911733;183.0;10097.0;5041.0;5056.0;503;12;90;108;11;143;139;11;23;76;376;17;2017;47.39179954;1549;6030;2518;989
03129000000;03630;03;ALACANT/ALICANTE;TIBI;7038.2694;35711.0;-0.57799241;38.53125236;517.0;1603.0;842.0;761.0;69;4;11;13;0;11;30;0;19;3;44;3;2017;47.48284467;217;1034;352;140
03130000000;03635;03;ALACANT/ALICANTE;TOLLOS;1597.312;19407.0;-0.27417974;38.75700785;776.0;50.0;27.0;23.0;3;-1;1;1;-1;-1;1;-1;-1;-1;3;-1;2017;65.98;0;20;30;0
03131000000;03640;03;ALACANT/ALICANTE;TORMOS;536.0;14453.0;-0.0723226;38.80205024;129.0;333.0;163.0;170.0;15;1;1;2;-1;3;8;-1;2;0;13;-1;2017;53.39039039;41;181;111;26
03132000000;03645;03;ALACANT/ALICANTE;TORREMANZANAS/LA TORRE DE LES MAÇANES;3647.9641;29931.0;-0.41885176;38.60676744;791.0;682.0;357.0;325.0;36;4;5;9;1;5;12;-1;10;5;16;5;2017;51.75366569;55;454;173;36
03133000000;03650;03;ALACANT/ALICANTE;TORREVIEJA;7163.01;47550.0;-0.68302608;37.97775873;7.0;83252.0;41527.0;41725.0;7861;260;1247;2070;285;1784;2215;222;366;1085;5975;213;2017;44.57004036;13952;53084;16216;9158
03134000000;03655;03;ALACANT/ALICANTE;LA VALL D'ALCALÀ;2285.0561;24552.0;-0.25201489;38.79456237;639.0;168.0;92.0;76.0;10;1;3;3;-1;1;2;1;-1;2;7;-1;2017;54.48214286;18;97;53;12
03135000000;03660;03;ALACANT/ALICANTE;LA VALL D'EBO;3242.5432;24069.0;-0.15985139;38.80574426;392.0;232.0;124.0;108.0;11;-1;5;3;-1;1;2;2;2;0;7;-1;2017;55.74568966;14;144;74;5
03136000000;03665;03;ALACANT/ALICANTE;VALL DE GALLINERA;5363.2909;36163.0;-0.22174105;38.82200923;293.0;594.0;323.0;271.0;26;-1;7;10;-1;3;6;4;4;2;16;-1;2017;51.61784512;58;373;163;43
03137000000;03670;03;ALACANT/ALICANTE;LA VALL DE LAGUAR;2305.4272;24361.0;-0.10944662;38.77743427;439.0;825.0;408.0;417.0;36;-1;5;12;1;7;11;2;3;2;28;1;2017;53.14666667;85;474;266;58
03138000000;03675;03;ALACANT/ALICANTE;EL VERGER;815.895;13551.0;0.01012098;38.84290338;21.0;4421.0;2212.0;2209.0;390;17;56;104;13;86;114;5;19;71;264;31;2017;44.70821081;722;2847;852;488
03139000000;03680;03;ALACANT/ALICANTE;VILLAJOYOSA/LA VILA JOIOSA;5924.8127;41201.0;-0.2319288;38.50545611;16.0;33607.0;16777.0;16830.0;3007;115;536;750;93;688;825;60;195;338;2259;155;2017;42.52483114;6007;22606;4994;3966
03140000000;03685;03;ALACANT/ALICANTE;VILLENA;34537.0418;96793.0;-0.86138343;38.62963811;503.0;33968.0;16972.0;16996.0;3409;126;450;654;108;789;1282;275;1066;200;1431;437;2017;42.41874706;6389;22400;5179;4296
03901000000;03615;03;ALACANT/ALICANTE;ELS POBLETS;362.0743;8537.0;0.01680187;38.85116436;13.0;2926.0;1392.0;1534.0;110;6;13;29;5;24;33;3;4;13;80;10;2017;53.96103896;303;1604;1019;191
03902000000;03512;03;ALACANT/ALICANTE;PILAR DE LA HORADADA;7785.5013;46655.0;-0.79242783;37.86372554;32.0;21202.0;10894.0;10308.0;1243;57;220;253;60;355;298;158;55;125;870;35;2017;42.86510707;4014;13246;3942;2710
03903000000;03437;03;ALACANT/ALICANTE;LOS MONTESINOS;1504.9321;21032.0;-0.74364774;38.02749921;19.0;4862.0;2457.0;2405.0;317;20;55;70;8;84;80;21;23;35;228;10;2017;44.34224599;839;3045;978;543
03904000000;03572;03;ALACANT/ALICANTE;SAN ISIDRO;1169.884;15948.0;-0.83836588;38.17123285;10.0;1920.0;983.0;937.0;207;6;30;42;13;53;63;7;59;21;108;12;2017;40.321875;333;1350;237;234
04001000000;04005;04;ALMERÍA;ABLA;4524.4244;46589.0;-2.77953953;37.1412099;853.0;1267.0;651.0;616.0;88;5;18;32;5;22;6;7;9;7;61;4;2017;48.48382005;161;791;315;101
04002000000;04010;04;ALMERÍA;ABRUCENA;8367.747;58614.0;-2.7974669;37.13218285;986.0;1170.0;606.0;564.0;73;4;12;20;6;21;10;9;3;14;42;5;2017;49.96495726;113;771;286;68
04003000000;04015;04;ALMERÍA;ADRA;8969.45;51619.0;-3.02330257;36.74868325;14.0;24697.0;12480.0;12217.0;2255;115;392;440;109;653;546;409;86;244;1280;236;2017;39.7912297;5000;16721;2976;3330
04004000000;04020;04;ALMERÍA;ALBANCHEZ;3491.43;26788.0;-2.18135854;37.28686167;487.0;754.0;378.0;376.0;30;-1;6;10;2;8;4;1;3;5;20;1;2017;55.20822281;73;385;296;42
04005000000;04025;04;ALMERÍA;ALBOLODUY;6973.4477;47842.0;-2.62168571;37.03339629;381.0;610.0;299.0;311.0;30;3;4;11;1;8;3;8;1;4;16;1;2017;52.01147541;59;367;184;48
04006000000;04030;04;ALMERÍA;ALBOX;16845.16;61482.0;-2.14799133;37.38850758;420.0;11481.0;5873.0;5608.0;807;38;157;175;45;229;163;68;44;89;544;62;2017;43.21992858;2048;7449;1984;1370
04007000000;04035;04;ALMERÍA;ALCOLEA;6751.6723;47344.0;-2.96066637;36.97361957;746.0;811.0;416.0;395.0;76;4;10;32;6;15;9;10;4;14;44;4;2017;49.25770654;85;537;189;45
04008000000;04040;04;ALMERÍA;ALCÓNTAR;9390.6745;59358.0;-2.59756879;37.33611796;955.0;577.0;319.0;258.0;31;0;7;11;0;8;5;3;2;7;18;1;2017;51.01213172;62;355;160;37
04009000000;04045;04;ALMERÍA;ALCUDIA DE MONTEAGUD;1552.24;22000.0;-2.26678969;37.23587193;1025.0;148.0;68.0;80.0;6;-1;2;3;-1;0;1;0;-1;-1;6;-1;2017;53.89864865;6;102;40;3
04010000000;04050;04;ALMERÍA;ALHABIA;1639.4593;18386.0;-2.58702093;36.98991242;290.0;678.0;355.0;323.0;85;4;17;22;4;26;12;2;12;28;36;7;2017;45.36873156;99;456;123;52
04011000000;04055;04;ALMERÍA;ALHAMA DE ALMERÍA;2624.375;25588.0;-2.56977648;36.95718281;520.0;3653.0;1835.0;1818.0;369;18;69;75;21;100;86;31;31;28;237;42;2017;42.21379688;694;2353;606;462
04012000000;04060;04;ALMERÍA;ALICÚN;587.3104;14336.0;-2.60215517;36.96671607;414.0;217.0;110.0;107.0;28;1;4;9;0;5;9;2;3;2;20;1;2017;48.51612903;25;139;53;13
04013000000;04001;04;ALMERÍA;ALMERÍA;29572.44;127373.0;-2.46413188;36.83892362;16.0;195389.0;95044.0;100345.0;20736;815;3942;4346;926;5576;5131;1367;677;2212;14006;2474;2017;41.00758999;39071;129535;26783;26489
04014000000;04065;04;ALMERÍA;ALMÓCITA;3082.5201;39310.0;-2.78984397;37.00274251;835.0;174.0;91.0;83.0;13;-1;3;2;1;4;3;0;2;1;9;1;2017;52.43678161;15;115;44;7
04015000000;04070;04;ALMERÍA;ALSODUX;2010.2293;32083.0;-2.59464638;37.00135999;309.0;132.0;75.0;57.0;11;1;2;2;-1;3;3;0;-1;0;11;-1;2017;55.98484848;5;89;38;1
04016000000;04075;04;ALMERÍA;ANTAS;9914.11;42358.0;-1.91715315;37.24459175;108.0;3124.0;1556.0;1568.0;127;5;19;24;4;38;37;13;7;7;93;7;2017;42.71734955;570;2029;525;381
04017000000;04080;04;ALMERÍA;ARBOLEAS;6614.36;46628.0;-2.0754646;37.35116011;270.0;4463.0;2238.0;2225.0;150;7;32;30;9;39;33;10;8;31;94;7;2017;55.83800134;379;2505;1579;225
04018000000;04085;04;ALMERÍA;ARMUÑA DE ALMANZORA;786.36;14916.0;-2.41135555;37.34982202;630.0;327.0;158.0;169.0;14;1;4;4;-1;1;4;1;-1;5;8;0;2017;47.59938838;44;204;79;28
04019000000;04090;04;ALMERÍA;BACARES;9476.31;40006.0;-2.45318749;37.26120059;1209.0;244.0;128.0;116.0;6;1;1;1;0;0;3;0;-1;0;6;-1;2017;54.77459016;16;157;71;7
04020000000;04095;04;ALMERÍA;BAYÁRCAL;3802.3734;35027.0;-2.99562617;37.03018267;1252.0;303.0;163.0;140.0;14;-1;3;6;1;2;2;0;-1;0;14;-1;2017;49.14521452;29;210;64;23
04021000000;04100;04;ALMERÍA;BAYARQUE;2653.45;27921.0;-2.43594364;37.33068864;817.0;215.0;108.0;107.0;14;1;0;2;-1;7;4;0;1;4;9;-1;2017;52.50232558;22;131;62;9
04022000000;04105;04;ALMERÍA;BÉDAR;4671.8751;33619.0;-1.98182232;37.19030833;401.0;892.0;437.0;455.0;46;3;5;17;3;6;12;1;2;3;33;7;2017;55.35762332;71;522;299;42
04023000000;04110;04;ALMERÍA;BEIRES;3883.4832;37726.0;-2.79152516;37.01264326;934.0;110.0;53.0;57.0;7;-1;3;2;1;-1;1;0;-1;2;5;-1;2017;59.07272727;3;65;42;3
04024000000;04115;04;ALMERÍA;BENAHADUX;1661.5387;18999.0;-2.45067345;36.92496886;105.0;4212.0;2092.0;2120.0;436;22;63;85;15;140;111;17;16;45;316;42;2017;38.21367521;963;2818;431;692
04026000000;04125;04;ALMERÍA;BENITAGLA;646.61;13999.0;-2.23834784;37.23123941;945.0;66.0;39.0;27.0;4;-1;2;0;-1;2;0;0;-1;-1;4;-1;2017;61.0;0;38;28;0
04027000000;04130;04;ALMERÍA;BENIZALÓN;3197.1116;32063.0;-2.24067815;37.21246044;932.0;263.0;142.0;121.0;19;1;6;4;2;3;3;3;-1;2;13;1;2017;53.10646388;19;170;74;11
04028000000;04135;04;ALMERÍA;BENTARIQUE;1134.3564;28435.0;-2.61889692;36.98631438;316.0;238.0;136.0;102.0;21;0;6;5;1;5;4;2;1;0;18;0;2017;49.94957983;27;154;57;21
04029000000;04140;04;ALMERÍA;BERJA;18581.24;66447.0;-2.94948207;36.84732147;340.0;12331.0;6204.0;6127.0;1263;47;236;318;68;313;281;271;43;186;674;89;2017;40.42981105;2456;8270;1605;1656
04030000000;04145;04;ALMERÍA;CANJÁYAR;6692.6563;57977.0;-2.73944378;37.01006973;602.0;1223.0;633.0;590.0;98;4;20;37;6;16;15;10;3;18;60;7;2017;51.65576451;119;743;361;67
04031000000;04150;04;ALMERÍA;CANTORIA;7901.73;49370.0;-2.19324978;37.35219371;381.0;3251.0;1653.0;1598.0;241;12;37;68;6;58;60;18;24;37;135;27;2017;49.28391264;435;1972;844;260
04032000000;04155;04;ALMERÍA;CARBONERAS;9546.4247;57089.0;-1.89349648;36.99742391;6.0;7837.0;4032.0;3805.0;681;33;118;133;26;207;164;61;49;60;453;58;2017;40.52341457;1537;5372;928;1005
04033000000;04160;04;ALMERÍA;CASTRO DE FILABRES;2923.5664;29594.0;-2.43912676;37.18484936;945.0;130.0;61.0;69.0;8;2;1;1;-1;2;2;0;0;-1;7;1;2017;54.94615385;5;87;38;3
04034000000;04165;04;ALMERÍA;CÓBDAR;3186.19;31236.0;-2.21001778;37.26157453;606.0;156.0;92.0;64.0;8;-1;2;1;-1;2;3;1;-1;-1;7;-1;2017;54.57692308;8;102;46;5
04035000000;04170;04;ALMERÍA;CUEVAS DEL ALMANZORA;26444.58;75569.0;-1.87991806;37.2967313;89.0;13655.0;7103.0;6552.0;1050;39;203;199;54;310;245;167;32;109;664;78;2017;39.93423654;2889;8929;1837;2037
04036000000;04175;04;ALMERÍA;CHERCOS;1355.46;15071.0;-2.26646383;37.25435736;912.0;291.0;147.0;144.0;25;0;6;5;2;10;2;0;4;1;20;-1;2017;48.03092784;43;173;75;23
04037000000;04180;04;ALMERÍA;CHIRIVEL;19655.8011;73257.0;-2.26658541;37.59512473;1039.0;1568.0;792.0;776.0;61;4;17;14;1;17;8;5;1;7;44;4;2017;52.97831633;168;890;510;102
04038000000;04185;04;ALMERÍA;DALÍAS;14143.38;57016.0;-2.87111055;36.82078429;411.0;3986.0;1973.0;2013.0;239;7;36;61;14;65;56;46;6;30;135;22;2017;43.10938284;722;2571;693;457
04041000000;04200;04;ALMERÍA;ENIX;6684.4603;53230.0;-2.60175846;36.8769393;716.0;434.0;241.0;193.0;21;-1;6;3;1;7;4;2;0;0;18;1;2017;49.93317972;41;303;90;28
04043000000;04210;04;ALMERÍA;FELIX;8126.2027;41816.0;-2.65861622;36.86898567;820.0;661.0;372.0;289.0;31;1;5;10;2;6;7;3;0;6;22;0;2017;48.53555219;70;456;135;45
04044000000;04215;04;ALMERÍA;FINES;2307.6725;26227.0;-2.263629;37.35887254;444.0;2048.0;1066.0;982.0;232;7;31;66;9;52;67;18;40;21;132;21;2017;41.86279297;364;1413;271;236
04045000000;04220;04;ALMERÍA;FIÑANA;13395.9718;71085.0;-2.84178852;37.17135438;950.0;2014.0;1007.0;1007.0;174;10;32;55;12;42;23;24;15;22;97;16;2017;47.90566038;263;1308;443;143
04046000000;04225;04;ALMERÍA;FONDÓN;9115.8777;58602.0;-2.85918906;36.97993167;846.0;1002.0;531.0;471.0;71;4;10;19;1;16;21;8;14;8;39;2;2017;48.84730539;119;653;230;65
04047000000;04230;04;ALMERÍA;GÁDOR;8767.0204;62237.0;-2.49279322;36.9530923;173.0;3037.0;1575.0;1462.0;392;28;73;85;22;96;88;51;21;37;227;56;2017;40.91965756;595;1999;443;386
04048000000;04235;04;ALMERÍA;LOS GALLARDOS;3492.886;35124.0;-1.9417002;37.17027055;121.0;2841.0;1431.0;1410.0;143;8;18;35;6;40;36;5;4;17;106;11;2017;48.08658923;416;1686;739;260
04049000000;04240;04;ALMERÍA;GARRUCHA;776.6;17344.0;-1.82347743;37.1797194;20.0;8666.0;4465.0;4201.0;937;37;177;198;37;255;233;31;19;76;764;47;2017;38.96318948;1852;5873;941;1261
04050000000;04245;04;ALMERÍA;GÉRGAL;22948.7704;77389.0;-2.53905331;37.12083904;763.0;1030.0;546.0;484.0;72;6;9;20;4;24;9;11;4;7;43;7;2017;47.05825243;143;660;227;98
04051000000;04250;04;ALMERÍA;HUÉCIJA;1901.8613;24555.0;-2.60994487;36.96802203;409.0;501.0;243.0;258.0;27;1;4;9;1;9;3;1;1;2;22;1;2017;47.19161677;73;314;114;46
04052000000;04255;04;ALMERÍA;HUÉRCAL DE ALMERÍA;2092.75;22894.0;-2.43599715;36.88406432;69.0;17234.0;8791.0;8443.0;1746;91;302;300;83;552;418;71;75;182;1288;130;2017;35.08378786;4580;11736;918;3206
04053000000;04260;04;ALMERÍA;HUÉRCAL-OVERA;31783.35;80822.0;-1.943031;37.38937619;279.0;18649.0;9254.0;9395.0;1206;30;196;236;63;407;274;138;65;113;800;90;2017;41.49616601;3752;12016;2881;2555
04054000000;04265;04;ALMERÍA;ÍLLAR;1918.8146;26168.0;-2.63886001;36.9849617;424.0;374.0;202.0;172.0;26;3;5;6;-1;5;7;1;3;0;20;2;2017;51.34759358;32;248;94;14
04055000000;04270;04;ALMERÍA;INSTINCIÓN;3348.4996;40556.0;-2.65979091;36.99319077;427.0;430.0;208.0;222.0;32;1;7;8;1;6;9;0;5;2;21;4;2017;50.35348837;58;253;119;39
04056000000;04275;04;ALMERÍA;LAROYA;2171.34;21998.0;-2.3320851;37.29604768;860.0;169.0;95.0;74.0;13;3;2;5;-1;2;1;1;1;1;9;1;2017;46.01183432;22;117;30;11
04057000000;04280;04;ALMERÍA;LÁUJAR DE ANDARAX;9280.8708;64264.0;-2.88903331;36.99456726;920.0;1533.0;762.0;771.0;122;7;10;45;4;21;35;10;16;17;77;2;2017;46.97586432;232;963;338;147
04058000000;04285;04;ALMERÍA;LÍJAR;2819.15;24987.0;-2.21999131;37.29501881;604.0;395.0;207.0;188.0;40;2;8;12;3;12;3;0;10;1;27;2;2017;50.7443038;40;248;107;24
04059000000;04290;04;ALMERÍA;LUBRÍN;13822.96;53424.0;-2.06592032;37.21648353;516.0;1440.0;704.0;736.0;76;1;13;22;3;25;12;4;4;7;56;5;2017;53.87708333;154;783;503;110
04060000000;04295;04;ALMERÍA;LUCAINENA DE LAS TORRES;12320.2811;66727.0;-2.2011865;37.0402677;549.0;570.0;308.0;262.0;33;1;5;10;1;11;5;3;1;3;23;3;2017;48.56842105;68;358;144;40
04061000000;04300;04;ALMERÍA;LÚCAR;10059.71;46497.0;-2.42494356;37.40081642;900.0;771.0;382.0;389.0;64;0;9;20;3;20;12;8;5;8;41;2;2017;47.32425422;110;490;171;69
04062000000;04305;04;ALMERÍA;MACAEL;4380.1;30742.0;-2.30432229;37.33233031;536.0;5576.0;2866.0;2710.0;545;23;80;91;20;171;160;23;120;21;322;59;2017;42.58644189;967;3776;833;613
04063000000;04310;04;ALMERÍA;MARÍA;22562.6658;82724.0;-2.16479793;37.7115544;1197.0;1288.0;659.0;629.0;47;3;9;13;1;10;11;8;5;2;30;2;2017;49.9371118;144;795;349;81
04064000000;04315;04;ALMERÍA;MOJÁCAR;7153.7421;47958.0;-1.85016798;37.14008707;140.0;6330.0;3115.0;3215.0;396;20;62;82;5;97;130;10;9;23;331;23;2017;48.73696682;812;3970;1548;530
04065000000;04320;04;ALMERÍA;NACIMIENTO;8075.8142;45591.0;-2.64792293;37.10502345;596.0;475.0;240.0;235.0;28;2;3;5;2;5;11;7;8;0;12;1;2017;49.98315789;45;318;112;24
04066000000;04325;04;ALMERÍA;NÍJAR;59976.79;132948.0;-2.20611069;36.96580749;357.0;28996.0;15816.0;13180.0;2169;89;455;474;115;620;416;619;61;154;1175;160;2017;36.43374948;6638;19890;2468;4843
04067000000;04330;04;ALMERÍA;OHANES;3241.3093;26510.0;-2.74552024;37.03829786;961.0;626.0;306.0;320.0;51;3;13;12;4;12;7;3;1;5;42;0;2017;52.02076677;62;382;182;34
04068000000;04335;04;ALMERÍA;OLULA DE CASTRO;3360.3839;28988.0;-2.47387144;37.17517469;1005.0;191.0;103.0;88.0;8;0;2;5;-1;0;1;1;-1;1;6;0;2017;55.82198953;3;126;62;1
04069000000;04340;04;ALMERÍA;OLULA DEL RÍO;2351.6819;25672.0;-2.29735506;37.3531739;485.0;6216.0;3194.0;3022.0;666;26;82;175;15;184;184;35;133;44;383;71;2017;41.59684685;1199;4179;838;749
04070000000;04345;04;ALMERÍA;ORIA;23470.89;76653.0;-2.29602131;37.48360163;1022.0;2265.0;1191.0;1074.0;78;2;19;27;1;14;15;13;3;10;45;7;2017;51.27284768;239;1385;641;149
04071000000;04350;04;ALMERÍA;PADULES;2649.1784;29702.0;-2.77409853;36.99862987;747.0;436.0;223.0;213.0;19;1;7;7;0;1;3;0;-1;6;12;1;2017;55.11926606;35;258;143;24
04072000000;04355;04;ALMERÍA;PARTALOA;5252.71;30847.0;-2.2262643;37.40605456;543.0;975.0;484.0;491.0;21;1;5;4;0;8;3;1;2;1;14;3;2017;56.2574359;73;570;332;44
04073000000;04360;04;ALMERÍA;PATERNA DEL RÍO;4548.0817;32494.0;-2.95313089;37.02162718;1201.0;364.0;211.0;153.0;31;5;6;7;5;4;4;4;2;5;18;2;2017;51.52747253;32;231;101;22
04074000000;04365;04;ALMERÍA;PECHINA;4605.6772;30746.0;-2.44105175;36.91567505;105.0;4010.0;2036.0;1974.0;487;21;86;93;35;124;128;51;23;41;319;53;2017;38.53541147;895;2703;412;619
04075000000;04370;04;ALMERÍA;PULPÍ;9459.67;48678.0;-1.745159;37.41211031;194.0;9055.0;4669.0;4386.0;380;13;64;63;14;131;95;104;17;32;205;22;2017;39.15207068;1923;6117;1015;1320
04076000000;04375;04;ALMERÍA;PURCHENA;5647.4707;55523.0;-2.36166335;37.34731041;551.0;1636.0;846.0;790.0;131;5;17;32;6;37;34;8;41;15;55;12;2017;44.1809291;275;1073;288;144
04077000000;04380;04;ALMERÍA;RÁGOL;2692.1943;31675.0;-2.68123514;36.9953238;405.0;307.0;165.0;142.0;8;0;2;4;-1;1;1;1;-1;1;6;0;2017;53.91856678;21;189;97;10
04078000000;04385;04;ALMERÍA;RIOJA;3640.4382;26023.0;-2.46389912;36.94267969;128.0;1367.0;684.0;683.0;200;16;36;52;14;29;53;25;10;16;132;17;2017;41.54059985;253;937;177;170
04079000000;04390;04;ALMERÍA;ROQUETAS DE MAR;5964.8732;51463.0;-2.6150576;36.76467854;7.0;93363.0;48180.0;45183.0;9075;360;1647;1718;314;2865;2171;1157;289;850;6142;637;2017;36.74724463;20919;65611;6833;14793
04080000000;04395;04;ALMERÍA;SANTA CRUZ DE MARCHENA;1997.2556;28403.0;-2.60298289;37.01700109;330.0;225.0;111.0;114.0;23;1;5;10;-1;2;5;1;1;4;16;1;2017;53.53777778;12;150;63;7
04081000000;04400;04;ALMERÍA;SANTA FE DE MONDÚJAR;3486.9229;41916.0;-2.5313124;36.97425446;215.0;429.0;216.0;213.0;50;5;9;13;1;13;9;5;4;4;32;5;2017;48.16783217;49;282;98;32
04082000000;04405;04;ALMERÍA;SENÉS;5024.77;37939.0;-2.34726177;37.20447008;1008.0;312.0;166.0;146.0;23;1;3;12;1;3;3;1;-1;8;14;-1;2017;55.67307692;17;193;102;8
04083000000;04410;04;ALMERÍA;SERÓN;16645.26;77415.0;-2.50991257;37.34295293;823.0;2080.0;1058.0;1022.0;131;3;16;40;4;36;32;6;12;12;92;9;2017;48.40625;286;1264;530;191
04084000000;04415;04;ALMERÍA;SIERRO;2749.95;26530.0;-2.39864285;37.32144567;755.0;400.0;210.0;190.0;35;1;4;17;-1;6;7;1;5;9;18;2;2017;49.37;40;270;90;25
04085000000;04420;04;ALMERÍA;SOMONTÍN;1619.05;30586.0;-2.38745675;37.39094721;824.0;471.0;236.0;235.0;26;1;1;9;1;8;6;2;2;4;17;1;2017;50.20169851;51;306;114;26
04086000000;04425;04;ALMERÍA;SORBAS;24916.1217;80013.0;-2.124113;37.09821538;409.0;2463.0;1296.0;1167.0;178;9;43;46;8;43;29;21;12;26;101;18;2017;47.16118555;370;1501;592;256
04087000000;04430;04;ALMERÍA;SUFLÍ;1013.35;21961.0;-2.39014365;37.33823085;630.0;222.0;119.0;103.0;20;-1;3;8;-1;4;5;1;2;4;13;-1;2017;49.32432432;21;157;44;5
04088000000;04435;04;ALMERÍA;TABERNAS;28037.6595;71753.0;-2.39150625;37.04984427;402.0;3679.0;1893.0;1786.0;386;16;76;110;21;100;63;57;27;37;245;20;2017;43.50502854;579;2505;595;360
04089000000;04440;04;ALMERÍA;TABERNO;4405.97;36433.0;-2.07770837;37.46930863;712.0;984.0;480.0;504.0;42;7;7;10;1;8;9;0;1;11;25;5;2017;50.42073171;115;589;280;71
04090000000;04445;04;ALMERÍA;TAHAL;9461.59;60223.0;-2.28473564;37.22770702;1008.0;346.0;174.0;172.0;24;-1;5;8;-1;6;5;1;-1;8;14;1;2017;51.50867052;34;214;98;24
04091000000;04450;04;ALMERÍA;TERQUE;1571.7866;39964.0;-2.5960885;36.98374179;285.0;386.0;194.0;192.0;30;0;5;9;1;5;10;1;1;2;24;2;2017;53.62694301;33;234;119;14
04092000000;04455;04;ALMERÍA;TÍJOLA;6739.12;47797.0;-2.43885542;37.34438543;688.0;3615.0;1786.0;1829.0;281;14;44;68;12;77;66;23;27;41;157;33;2017;42.44204703;693;2327;595;408
04093000000;04460;04;ALMERÍA;TURRE;10795.7063;54227.0;-1.89426392;37.15286446;51.0;3317.0;1692.0;1625.0;333;10;68;76;14;97;68;10;6;52;248;17;2017;45.23093156;555;2066;696;374
04094000000;04465;04;ALMERÍA;TURRILLAS;3916.91;29992.0;-2.26512269;37.0299004;845.0;229.0;133.0;96.0;11;2;3;5;-1;0;1;0;-1;1;9;1;2017;52.04803493;16;154;59;11
04095000000;04470;04;ALMERÍA;ULEILA DEL CAMPO;3866.9809;27143.0;-2.2035137;37.18525562;627.0;848.0;427.0;421.0;63;0;14;18;-1;15;16;2;5;11;39;6;2017;49.85259434;106;523;219;63
04096000000;04475;04;ALMERÍA;URRÁCAL;2546.7129;22549.0;-2.36518023;37.39750865;744.0;332.0;171.0;161.0;15;-1;7;1;-1;5;2;2;1;3;7;2;2017;49.76506024;29;229;74;15
04097000000;04480;04;ALMERÍA;VELEFIQUE;6634.8811;41209.0;-2.40192493;37.19492499;926.0;247.0;132.0;115.0;21;-1;5;8;1;2;5;3;-1;5;11;2;2017;56.12955466;8;156;83;5
04098000000;04485;04;ALMERÍA;VÉLEZ-BLANCO;44130.7972;115426.0;-2.09608111;37.69085853;1076.0;1918.0;998.0;920.0;90;4;13;19;4;27;23;5;3;3;69;10;2017;49.52919708;229;1202;487;140
04099000000;04490;04;ALMERÍA;VÉLEZ-RUBIO;28195.18;82342.0;-2.07415558;37.64799415;838.0;6661.0;3227.0;3434.0;459;27;84;126;21;109;92;37;33;66;279;44;2017;46.05824951;1036;4175;1450;670
04100000000;04495;04;ALMERÍA;VERA;5813.78;39226.0;-1.86877507;37.24675325;101.0;15528.0;7916.0;7612.0;1339;55;255;262;57;401;309;109;39;124;981;86;2017;38.25991757;3618;10249;1661;2440
04101000000;04500;04;ALMERÍA;VIATOR;2062.06;19674.0;-2.42781271;36.88906423;71.0;5686.0;2911.0;2775.0;606;32;115;99;29;204;127;37;17;57;436;59;2017;37.07421738;1249;3941;496;891
04102000000;04505;04;ALMERÍA;VÍCAR;6433.9546;54592.0;-2.64392746;36.83084658;279.0;25149.0;13388.0;11761.0;2318;114;429;468;130;705;472;482;58;194;1401;183;2017;36.12604875;5758;17580;1811;4003
04103000000;04510;04;ALMERÍA;ZURGENA;7161.26;41801.0;-2.03993235;37.34234106;239.0;2877.0;1437.0;1440.0;153;9;24;37;13;42;28;21;3;18;100;11;2017;51.15363226;355;1683;839;230
04901000000;04458;04;ALMERÍA;LAS TRES VILLAS;8535.4083;51794.0;-2.71216116;37.13516947;689.0;598.0;320.0;278.0;38;-1;10;17;1;9;1;3;3;2;30;-1;2017;52.42307692;46;394;158;28
04902000000;04195;04;ALMERÍA;EL EJIDO;22557.66;73885.0;-2.81490838;36.77576137;81.0;88096.0;46719.0;41377.0;6379;281;1242;1191;357;1951;1357;1570;218;394;3527;670;2017;36.49717354;20034;61440;6622;14087
04903000000;04318;04;ALMERÍA;LA MOJONERA;2386.6756;25930.0;-2.68308803;36.75456705;40.0;8717.0;4816.0;3901.0;597;25;124;113;36;170;129;216;14;44;268;55;2017;35.92371229;2030;6071;616;1392
04904000000;04092;04;ALMERÍA;BALANEGRA;3160.34;25000.0;-2.90884074;36.74594326;6.0;2939.0;1532.0;1407.0;173;11;32;38;9;51;32;42;2;10;107;12;2017;38.46070092;594;2067;278;389
05001000000;05003;05;ÁVILA;ADANERO;3141.7781;24382.0;-4.60377542;40.94423557;910.0;211.0;117.0;94.0;15;0;-1;4;1;5;5;0;-1;4;10;1;2017;53.34123223;15;134;62;1
05002000000;05006;05;ÁVILA;LA ADRADA;5867.4353;41862.0;-4.63746033;40.30136381;624.0;2583.0;1328.0;1255.0;296;11;54;73;8;63;87;9;13;43;186;45;2017;43.97173829;477;1674;432;307
05005000000;05015;05;ÁVILA;ALBORNOS;1709.9669;21884.0;-4.88627099;40.83545261;911.0;199.0;106.0;93.0;8;-1;2;1;-1;0;5;2;2;-1;4;-1;2017;52.23115578;21;120;58;10
05007000000;05021;05;ÁVILA;ALDEANUEVA DE SANTA CRUZ;848.2739;15540.0;-5.41959204;40.38196006;1162.0;120.0;62.0;58.0;5;1;2;1;-1;1;-1;-1;-1;-1;4;1;2017;59.675;8;55;57;5
05008000000;05024;05;ÁVILA;ALDEASECA;2424.6149;21594.0;-4.81751947;41.04920154;859.0;255.0;127.0;128.0;20;1;5;3;-1;5;6;5;2;3;8;2;2017;52.6627451;25;153;77;16
05010000000;05027;05;ÁVILA;LA ALDEHUELA;1714.9413;17734.0;-5.40842904;40.40948687;1068.0;172.0;88.0;84.0;8;-1;2;3;-1;1;2;1;-1;2;5;-1;2017;56.75;14;88;70;10
05012000000;05033;05;ÁVILA;AMAVIDA;1501.6021;19999.0;-5.06123239;40.57148196;1163.0;139.0;69.0;70.0;7;-1;1;0;-1;4;2;1;1;1;1;3;2017;57.20863309;13;67;59;9
05013000000;05036;05;ÁVILA;EL ARENAL;2707.8429;23435.0;-5.08685361;40.26521196;888.0;996.0;505.0;491.0;61;1;7;22;-1;10;21;4;3;3;49;2;2017;54.60843373;89;551;356;54
05014000000;05039;05;ÁVILA;ARENAS DE SAN PEDRO;19461.7265;117650.0;-5.0911461;40.20868842;507.0;6556.0;3182.0;3374.0;612;19;77;160;17;141;198;31;46;59;415;61;2017;47.76113484;950;4169;1437;613
05015000000;05042;05;ÁVILA;AREVALILLO;1496.6675;19395.0;-5.37199751;40.58706309;1130.0;78.0;38.0;40.0;3;-1;0;1;-1;1;1;-1;-1;0;3;-1;2017;62.34615385;3;38;37;2
05016000000;05045;05;ÁVILA;ARÉVALO;4571.172;48294.0;-4.71892472;41.06550483;820.0;8087.0;3932.0;4155.0;605;36;74;92;27;186;190;107;36;27;378;57;2017;43.18152591;1486;5299;1302;938
05017000000;05048;05;ÁVILA;AVEINTE;1284.1462;24719.0;-4.83760071;40.78314581;1002.0;83.0;46.0;37.0;2;-1;-1;0;-1;1;1;-1;-1;0;2;-1;2017;60.38554217;0;50;33;0
05018000000;05051;05;ÁVILA;AVELLANEDA;1023.2802;12668.0;-5.38806013;40.38865969;1353.0;29.0;17.0;12.0;0;-1;0;-1;-1;-1;-1;-1;-1;-1;0;-1;2017;54.4137931;2;20;7;1
05019000000;05001;05;ÁVILA;ÁVILA;23070.44;172349.0;-4.69771277;40.65586958;1131.0;58149.0;27784.0;30365.0;4400;195;733;778;225;1266;1203;222;294;304;3084;496;2017;43.65779291;10389;37878;9882;6895
05021000000;05054;05;ÁVILA;EL BARCO DE ÁVILA;1268.3759;14319.0;-5.52704093;40.35576349;1004.0;2436.0;1175.0;1261.0;130;7;20;26;2;36;39;9;6;6;105;4;2017;47.5316092;386;1483;567;238
05022000000;05057;05;ÁVILA;EL BARRACO;15390.0813;67498.0;-4.64114216;40.47607893;1008.0;1886.0;975.0;911.0;107;11;9;27;3;19;38;6;6;9;69;17;2017;49.52704136;241;1154;491;143
05023000000;05060;05;ÁVILA;BARROMÁN;2003.2541;23285.0;-4.93135736;41.06568002;800.0;183.0;101.0;82.0;13;1;-1;4;0;2;6;1;0;5;7;-1;2017;56.04918033;11;105;67;4
05024000000;05063;05;ÁVILA;BECEDAS;3220.3196;26380.0;-5.63456079;40.40515651;1097.0;219.0;116.0;103.0;14;-1;1;9;-1;1;3;-1;0;3;10;1;2017;65.30593607;5;105;109;3
05025000000;05066;05;ÁVILA;BECEDILLAS;1986.1379;26718.0;-5.33091124;40.53862676;1062.0;95.0;52.0;43.0;2;-1;-1;-1;-1;-1;2;-1;-1;-1;2;-1;2017;58.91578947;3;57;35;2
05026000000;05069;05;ÁVILA;BERCIAL DE ZAPARDIEL;1730.6392;18611.0;-4.97072941;41.04621476;807.0;206.0;109.0;97.0;11;2;0;2;-1;1;6;6;-1;3;2;-1;2017;60.22330097;8;101;97;3
05027000000;05072;05;ÁVILA;LAS BERLANAS;1669.2759;26341.0;-4.76116873;40.80356051;946.0;324.0;167.0;157.0;19;-1;0;6;4;4;5;1;-1;6;11;1;2017;51.81790123;42;186;96;28
05029000000;05078;05;ÁVILA;BERNUY-ZAPARDIEL;1978.107;22258.0;-4.94334789;40.97602472;865.0;121.0;70.0;51.0;7;-1;1;2;-1;-1;4;-1;-1;4;3;-1;2017;60.54545455;7;62;52;4
05030000000;05081;05;ÁVILA;BERROCALEJO DE ARAGONA;900.7877;21507.0;-4.5922361;40.69953051;1092.0;39.0;19.0;20.0;2;-1;-1;1;-1;-1;1;-1;-1;-1;1;1;2017;53.56410256;4;21;14;4
05033000000;05084;05;ÁVILA;BLASCOMILLÁN;3960.3496;37760.0;-5.08872691;40.8016527;948.0;199.0;105.0;94.0;4;-1;1;3;-1;0;-1;1;1;-1;2;-1;2017;53.65326633;23;111;65;13
05034000000;05087;05;ÁVILA;BLASCONUÑO DE MATACABRAS;1298.773;18959.0;-4.98988245;41.12387142;786.0;14.0;8.0;6.0;1;-1;-1;1;-1;-1;-1;-1;-1;1;-1;-1;2017;62.07142857;0;10;4;0
05035000000;05090;05;ÁVILA;BLASCOSANCHO;2295.0394;22844.0;-4.63734676;40.87824933;902.0;106.0;49.0;57.0;6;0;-1;3;1;-1;2;-1;-1;3;2;1;2017;58.24528302;5;60;41;3
05036000000;05093;05;ÁVILA;EL BOHODÓN;2208.9284;28603.0;-4.72983798;40.91626371;883.0;126.0;64.0;62.0;3;-1;0;0;-1;0;3;0;-1;2;1;-1;2017;57.5;5;74;47;2
05037000000;05096;05;ÁVILA;BOHOYO;7386.53;42791.0;-5.44265278;40.31665496;1139.0;261.0;144.0;117.0;14;-1;1;5;1;3;4;-1;-1;5;8;1;2017;61.24904215;18;121;122;9
05038000000;05099;05;ÁVILA;BONILLA DE LA SIERRA;5505.5706;53365.0;-5.26499051;40.53083069;1077.0;124.0;73.0;51.0;3;-1;1;2;-1;-1;-1;-1;-1;-1;3;-1;2017;61.39516129;7;65;52;4
05039000000;05102;05;ÁVILA;BRABOS;1834.8923;30929.0;-4.93950653;40.78034277;994.0;47.0;29.0;18.0;-1;-1;-1;-1;-1;-1;-1;-1;-1;-1;-1;-1;2017;69.68085106;0;21;26;0
05040000000;05105;05;ÁVILA;BULARROS;3075.9053;47138.0;-4.86504123;40.72400997;1169.0;68.0;44.0;24.0;2;-1;1;1;-1;-1;-1;-1;-1;-1;1;1;2017;67.5;0;32;36;0
05041000000;05108;05;ÁVILA;BURGOHONDO;5533.6245;39834.0;-4.78592781;40.41614328;847.0;1225.0;634.0;591.0;97;2;8;35;5;28;19;2;1;17;68;9;2017;49.94285714;158;724;343;112
05042000000;05111;05;ÁVILA;CABEZAS DE ALAMBRE;1180.3764;15036.0;-4.84057883;40.94315804;900.0;158.0;79.0;79.0;8;0;-1;0;2;3;3;5;-1;0;3;0;2017;57.56329114;10;85;63;7
05043000000;05114;05;ÁVILA;CABEZAS DEL POZO;1796.5859;19167.0;-4.95481242;41.00123218;843.0;83.0;45.0;38.0;2;-1;-1;2;-1;-1;-1;-1;-1;2;-1;-1;2017;62.57831325;0;45;38;0
05044000000;05117;05;ÁVILA;CABEZAS DEL VILLAR;11006.7223;62675.0;-5.21188659;40.71627838;1048.0;296.0;165.0;131.0;9;-1;0;2;-1;4;3;1;1;1;6;-1;2017;60.37162162;26;130;140;13
05045000000;05120;05;ÁVILA;CABIZUELA;1917.2197;22618.0;-4.80129441;40.90118972;884.0;94.0;50.0;44.0;2;2;-1;-1;-1;0;-1;1;-1;-1;1;-1;2017;56.40425532;3;56;35;2
05046000000;05123;05;ÁVILA;CANALES;667.118;12763.0;-4.90117313;41.00396705;857.0;49.0;27.0;22.0;4;-1;-1;-1;-1;2;2;0;-1;4;-1;-1;2017;48.87755102;7;28;14;5
05047000000;05126;05;ÁVILA;CANDELEDA;21391.1495;66250.0;-5.23914852;40.15248281;429.0;5002.0;2543.0;2459.0;442;16;71;111;14;125;105;21;10;44;333;34;2017;47.99660136;724;3100;1178;475
05048000000;05129;05;ÁVILA;CANTIVEROS;1437.4055;22809.0;-4.95618555;40.95192842;875.0;115.0;64.0;51.0;10;2;1;4;-1;1;2;4;-1;5;1;-1;2017;63.13913043;4;58;53;0
05049000000;05132;05;ÁVILA;CARDEÑOSA;4050.1297;35911.0;-4.74363401;40.74228434;1105.0;440.0;233.0;207.0;16;1;3;3;0;4;5;1;0;2;11;2;2017;53.60681818;38;280;122;16
05051000000;05138;05;ÁVILA;LA CARRERA;1416.2705;17386.0;-5.55514674;40.34733577;1048.0;184.0;102.0;82.0;7;1;0;2;-1;1;3;1;-1;4;2;-1;2017;56.22826087;14;96;74;7
05052000000;05141;05;ÁVILA;CASAS DEL PUERTO;2214.0675;32310.0;-5.19835696;40.52856873;1174.0;99.0;52.0;47.0;1;-1;-1;-1;-1;1;0;-1;-1;1;0;-1;2017;60.98989899;1;54;44;0
05053000000;05144;05;ÁVILA;CASASOLA;1836.12;27208.0;-4.82825364;40.66685716;1310.0;84.0;44.0;40.0;1;-1;-1;-1;-1;-1;1;-1;-1;-1;1;-1;2017;70.03571429;1;31;52;1
05054000000;05147;05;ÁVILA;CASAVIEJA;3924.5582;27844.0;-4.7658077;40.27929676;538.0;1468.0;761.0;707.0;133;5;20;39;1;29;39;5;2;37;81;8;2017;48.29836512;209;923;336;138
05055000000;05150;05;ÁVILA;CASILLAS;1196.1826;16303.0;-4.57233428;40.32320357;1012.0;650.0;348.0;302.0;84;6;7;23;4;12;32;2;-1;13;63;6;2017;54.62615385;64;361;225;31
05056000000;05153;05;ÁVILA;CASTELLANOS DE ZAPARDIEL;1269.7958;17064.0;-4.90890242;41.08471768;783.0;95.0;51.0;44.0;7;-1;1;2;0;1;3;2;-1;3;2;0;2017;58.64210526;2;59;34;2
05057000000;05156;05;ÁVILA;CEBREROS;13747.0999;65199.0;-4.46439928;40.45477868;755.0;3100.0;1599.0;1501.0;300;15;41;71;9;79;85;19;28;41;166;46;2017;47.71096774;506;1815;779;328
05058000000;05159;05;ÁVILA;CEPEDA LA MORA;3139.541;27258.0;-5.04919741;40.45915722;1504.0;80.0;44.0;36.0;3;-1;-1;3;-1;-1;-1;1;-1;-1;2;-1;2017;58.9;4;47;29;3
05059000000;05162;05;ÁVILA;CILLÁN;1417.2286;30772.0;-4.97799497;40.70436552;1211.0;108.0;64.0;44.0;4;-1;1;1;1;-1;1;-1;-1;1;2;1;2017;61.86111111;1;58;49;0
05060000000;05165;05;ÁVILA;CISLA;2031.0446;23022.0;-5.01322747;40.96529531;853.0;110.0;57.0;53.0;2;-1;-1;2;-1;-1;0;0;-1;2;0;-1;2017;62.99090909;6;58;46;3
05061000000;05168;05;ÁVILA;LA COLILLA;1080.0;24212.0;-4.76650196;40.64673944;1130.0;328.0;170.0;158.0;20;1;0;4;3;7;5;1;1;3;11;4;2017;42.19207317;69;203;56;46
05062000000;05171;05;ÁVILA;COLLADO DE CONTRERAS;1843.8449;20568.0;-4.93002136;40.8877304;917.0;181.0;95.0;86.0;5;0;1;2;1;1;0;2;-1;-1;3;0;2017;58.67955801;11;101;69;1
05063000000;05174;05;ÁVILA;COLLADO DEL MIRÓN;484.1141;10534.0;-5.35355748;40.55448986;1166.0;35.0;21.0;14.0;1;-1;-1;-1;-1;0;1;-1;-1;-1;1;-1;2017;66.51428571;1;13;21;1
05064000000;05177;05;ÁVILA;CONSTANZANA;2684.6059;25165.0;-4.87406351;40.93842104;890.0;109.0;65.0;44.0;11;1;0;2;2;3;3;3;1;2;5;-1;2017;55.6146789;5;67;37;2
05065000000;05180;05;ÁVILA;CRESPOS;3192.3105;28522.0;-4.96994627;40.87320139;923.0;516.0;281.0;235.0;36;3;4;6;1;9;13;2;1;3;26;4;2017;51.21899225;49;332;135;37
05066000000;05183;05;ÁVILA;CUEVAS DEL VALLE;1917.2663;20008.0;-5.00939452;40.29420346;842.0;492.0;269.0;223.0;50;2;7;17;1;6;17;2;4;5;36;3;2017;52.13414634;47;307;138;30
05067000000;05186;05;ÁVILA;CHAMARTÍN;1545.3727;21408.0;-4.95811175;40.70161495;1197.0;82.0;48.0;34.0;6;2;1;1;-1;-1;2;-1;2;0;4;-1;2017;56.29268293;4;49;29;2
05069000000;05192;05;ÁVILA;DONJIMENO;1474.787;16095.0;-4.84498084;40.96004917;883.0;79.0;46.0;33.0;2;-1;-1;-1;-1;2;-1;-1;1;-1;1;-1;2017;54.93670886;3;52;24;0
05070000000;05195;05;ÁVILA;DONVIDAS;1147.87;14228.0;-4.80472375;41.08863948;868.0;36.0;19.0;17.0;1;-1;-1;1;-1;-1;-1;-1;-1;-1;-1;1;2017;58.33333333;1;25;10;1
05072000000;05201;05;ÁVILA;ESPINOSA DE LOS CABALLEROS;1940.3251;21798.0;-4.65097435;41.00911924;858.0;96.0;53.0;43.0;4;-1;1;1;0;-1;2;0;-1;1;3;-1;2017;48.9375;14;56;26;12
05073000000;05204;05;ÁVILA;FLORES DE ÁVILA;4304.3634;36391.0;-5.07809713;40.93420293;895.0;321.0;177.0;144.0;15;-1;2;3;2;4;4;4;2;0;8;1;2017;55.61682243;20;196;105;13
05074000000;05207;05;ÁVILA;FONTIVEROS;3641.6615;30669.0;-4.96743565;40.9302718;884.0;754.0;392.0;362.0;18;1;3;6;1;3;4;2;2;3;10;1;2017;52.87002653;66;455;233;43
05075000000;05210;05;ÁVILA;FRESNEDILLA;2453.0;22308.0;-4.62111813;40.2319559;622.0;127.0;55.0;72.0;6;1;-1;2;-1;-1;3;-1;0;1;5;-1;2017;61.12598425;13;55;59;9
05076000000;05213;05;ÁVILA;EL FRESNO;1311.49;30725.0;-4.75728726;40.6141894;1074.0;597.0;308.0;289.0;27;-1;3;5;2;7;10;2;3;2;18;2;2017;45.05862647;101;380;116;72
05077000000;05216;05;ÁVILA;FUENTE EL SAÚZ;981.2738;14534.0;-4.90922087;40.97751384;876.0;170.0;92.0;78.0;9;1;0;0;-1;3;5;1;0;7;1;0;2017;57.34705882;13;90;67;5
05078000000;05219;05;ÁVILA;FUENTES DE AÑO;2000.6524;18914.0;-4.89800749;41.01754859;822.0;108.0;58.0;50.0;7;-1;2;1;-1;2;2;2;-1;3;2;-1;2017;59.38888889;1;74;33;1
05079000000;05222;05;ÁVILA;GALLEGOS DE ALTAMIROS;2046.9425;23757.0;-4.90142455;40.70564361;1255.0;65.0;38.0;27.0;3;-1;1;2;-1;-1;-1;-1;-1;-1;3;-1;2017;59.66153846;1;42;22;0
05080000000;05225;05;ÁVILA;GALLEGOS DE SOBRINOS;4326.5759;34764.0;-5.10967937;40.71158995;1174.0;48.0;22.0;26.0;-1;-1;-1;-1;-1;-1;-1;-1;-1;-1;-1;-1;2017;67.85416667;0;20;28;0
05081000000;05228;05;ÁVILA;GARGANTA DEL VILLAR;1819.1375;20107.0;-5.10523822;40.44970815;1463.0;41.0;29.0;12.0;-1;-1;-1;-1;-1;-1;-1;-1;-1;-1;-1;-1;2017;61.58536585;3;17;21;2
05082000000;05231;05;ÁVILA;GAVILANES;2915.9214;32326.0;-4.85383975;40.27685672;678.0;598.0;316.0;282.0;57;0;5;24;1;11;16;1;4;13;33;6;2017;53.64381271;77;314;207;47
05083000000;05234;05;ÁVILA;GEMUÑO;1718.5573;28355.0;-4.78230282;40.59292508;1103.0;161.0;84.0;77.0;12;-1;3;5;-1;1;3;4;-1;2;4;2;2017;57.1242236;12;86;63;10
05084000000;05240;05;ÁVILA;GILBUENA;1513.1145;19382.0;-5.60883757;40.4142884;1062.0;70.0;41.0;29.0;2;-1;-1;2;-1;-1;-1;1;-1;1;-1;-1;2017;68.71428571;2;27;41;1
05085000000;05237;05;ÁVILA;GIL GARCÍA;1545.3536;21288.0;-5.59614999;40.29722194;1144.0;39.0;18.0;21.0;2;-1;2;-1;-1;-1;-1;-1;-1;1;1;-1;2017;55.33333333;5;18;16;5
05086000000;05243;05;ÁVILA;GIMIALCÓN;1905.3162;23799.0;-5.12294363;40.87731373;948.0;78.0;48.0;30.0;1;-1;-1;1;-1;0;-1;-1;-1;-1;1;-1;2017;62.91025641;0;43;35;0
05087000000;05246;05;ÁVILA;GOTARRENDURA;1063.439;17825.0;-4.73909452;40.82713572;930.0;161.0;56.0;105.0;7;-1;2;1;-1;3;1;-1;-1;2;5;-1;2017;54.0310559;11;112;38;6
05088000000;05249;05;ÁVILA;GRANDES Y SAN MARTÍN;1159.1614;18413.0;-4.95877717;40.75500242;1005.0;31.0;15.0;16.0;1;1;-1;-1;-1;-1;-1;-1;-1;-1;1;-1;2017;52.48387097;1;21;9;1
05089000000;05252;05;ÁVILA;GUISANDO;3832.7785;33664.0;-5.14011248;40.22196303;760.0;521.0;258.0;263.0;34;1;4;15;1;1;12;3;0;3;27;1;2017;55.71209213;45;298;178;18
05090000000;05255;05;ÁVILA;GUTIERRE-MUÑOZ;2215.3496;25351.0;-4.63649134;40.98269875;885.0;77.0;37.0;40.0;1;-1;-1;-1;0;-1;1;0;-1;-1;1;0;2017;57.54545455;2;45;30;2
05092000000;05258;05;ÁVILA;HERNANSANCHO;1937.8988;24359.0;-4.73033726;40.85748892;900.0;170.0;95.0;75.0;6;-1;-1;0;-1;2;4;0;1;1;4;-1;2017;52.16470588;14;109;47;9
05093000000;05261;05;ÁVILA;HERRADÓN DE PINARES;4839.5285;32151.0;-4.56022994;40.56531144;924.0;480.0;272.0;208.0;56;2;11;17;4;12;10;2;5;16;18;15;2017;47.69791667;78;286;116;48
05094000000;05264;05;ÁVILA;HERREROS DE SUSO;2153.1609;25678.0;-5.03849366;40.80253351;1009.0;134.0;73.0;61.0;6;1;-1;2;-1;1;2;1;1;-1;4;-1;2017;59.45522388;7;70;57;5
05095000000;05267;05;ÁVILA;HIGUERA DE LAS DUEÑAS;3502.0;34552.0;-4.60112267;40.23788276;634.0;281.0;153.0;128.0;33;1;6;15;1;4;6;-1;1;12;16;4;2017;54.03914591;20;180;81;13
05096000000;05270;05;ÁVILA;LA HIJA DE DIOS;1250.2646;16846.0;-4.97266473;40.5338715;1179.0;81.0;48.0;33.0;7;-1;1;2;-1;2;2;-1;-1;0;6;1;2017;56.56790123;7;47;27;4
05097000000;05273;05;ÁVILA;LA HORCAJADA;4652.1368;33790.0;-5.46643139;40.43530535;1033.0;500.0;255.0;245.0;38;2;10;6;2;12;6;0;5;6;24;3;2017;57.724;37;259;204;25
05099000000;05279;05;ÁVILA;HORCAJO DE LAS TORRES;4732.1222;29490.0;-5.09061991;41.06488191;820.0;531.0;300.0;231.0;32;2;4;9;3;5;9;7;1;13;10;1;2017;53.67043315;44;313;174;24
05100000000;05282;05;ÁVILA;EL HORNILLO;2327.0929;25118.0;-5.10365524;40.2499538;748.0;289.0;153.0;136.0;24;0;2;4;1;5;12;2;2;1;18;1;2017;57.87197232;20;156;113;9
05101000000;05288;05;ÁVILA;HOYOCASERO;5230.0;33879.0;-4.97560667;40.39950776;1348.0;303.0;174.0;129.0;11;0;3;5;-1;-1;3;1;1;1;8;-1;2017;57.59075908;14;177;112;5
05102000000;05285;05;ÁVILA;EL HOYO DE PINARES;8051.3528;46904.0;-4.4227064;40.50212632;850.0;2216.0;1146.0;1070.0;278;7;32;70;12;53;104;12;18;59;138;51;2017;46.49187726;349;1390;477;241
05103000000;05291;05;ÁVILA;HOYORREDONDO;1721.8833;16909.0;-5.40982245;40.46235174;1038.0;71.0;37.0;34.0;8;-1;2;2;-1;3;1;-1;-1;-1;7;1;2017;63.74647887;1;35;35;1
05104000000;05297;05;ÁVILA;HOYOS DEL COLLADO;988.2768;16902.0;-5.19937502;40.35870192;1474.0;36.0;21.0;15.0;2;-1;-1;0;-1;-1;2;-1;-1;-1;2;-1;2017;62.33333333;2;18;16;1
05105000000;05300;05;ÁVILA;HOYOS DEL ESPINO;5291.6497;41141.0;-5.17905228;40.36204127;1484.0;380.0;209.0;171.0;15;2;2;3;1;0;7;1;2;3;8;1;2017;50.8;42;246;92;19
05106000000;05294;05;ÁVILA;HOYOS DE MIGUEL MUÑOZ;1186.9264;17316.0;-5.06690238;40.3934329;1534.0;31.0;15.0;16.0;1;-1;-1;1;-1;-1;-1;-1;-1;-1;1;-1;2017;63.22580645;0;18;13;0
05107000000;05303;05;ÁVILA;HURTUMPASCUAL;1861.1255;21475.0;-5.1109785;40.69275778;1170.0;57.0;34.0;23.0;2;-1;-1;-1;-1;-1;2;-1;-1;-1;2;-1;2017;67.73684211;1;24;32;0
05108000000;05306;05;ÁVILA;JUNCIANA;1501.7018;18927.0;-5.55741457;40.41102429;994.0;42.0;22.0;20.0;2;-1;-1;1;-1;1;-1;-1;-1;-1;2;-1;2017;68.80952381;0;17;25;0
05109000000;05309;05;ÁVILA;LANGA;2445.215;19597.0;-4.8591111;41.00755363;865.0;495.0;259.0;236.0;31;3;3;1;3;10;11;6;1;3;19;2;2017;48.37373737;55;336;104;26
05110000000;05312;05;ÁVILA;LANZAHÍTA;3367.1594;24006.0;-4.93695407;40.20367903;448.0;860.0;443.0;417.0;113;6;12;32;5;26;32;8;3;22;70;10;2017;50.32093023;101;529;230;57
05112000000;05318;05;ÁVILA;EL LOSAR DEL BARCO;1953.9267;21504.0;-5.53901427;40.39240577;1009.0;108.0;55.0;53.0;3;-1;0;1;-1;1;1;-1;-1;-1;3;-1;2017;53.99074074;12;56;40;9
05113000000;05321;05;ÁVILA;LOS LLANOS DE TORMES;1746.1207;20035.0;-5.49867436;40.32831194;1053.0;70.0;31.0;39.0;0;0;-1;0;-1;-1;0;-1;0;0;0;-1;2017;63.31428571;2;33;35;2
05114000000;05324;05;ÁVILA;MADRIGAL DE LAS ALTAS TORRES;10680.1756;53726.0;-4.9983297;41.08975855;809.0;1464.0;746.0;718.0;160;6;14;38;4;38;60;31;2;41;77;9;2017;50.71243169;147;938;379;79
05115000000;05327;05;ÁVILA;MAELLO;6534.1696;57581.0;-4.5098191;40.8110326;1024.0;600.0;308.0;292.0;42;2;7;8;3;6;16;2;3;4;27;6;2017;53.86333333;46;359;195;27
05116000000;05330;05;ÁVILA;MALPARTIDA DE CORNEJA;1906.8448;22278.0;-5.35099316;40.52069073;1019.0;107.0;54.0;53.0;3;-1;-1;1;-1;-1;2;-1;-1;-1;2;1;2017;64.92523364;5;45;57;4
05117000000;05333;05;ÁVILA;MAMBLAS;2403.6542;23175.0;-5.00984865;41.01919223;819.0;210.0;118.0;92.0;12;1;0;0;-1;4;7;0;1;6;5;0;2017;53.61428571;13;135;62;11
05118000000;05336;05;ÁVILA;MANCERA DE ARRIBA;1758.5489;21462.0;-5.14830175;40.79092914;934.0;78.0;44.0;34.0;4;0;-1;0;-1;1;3;-1;-1;-1;3;1;2017;57.97435897;8;36;34;4
05119000000;05339;05;ÁVILA;MANJABÁLAGO Y ORTIGOSA DE RIOALMAR;1701.1551;25020.0;-5.07741359;40.66562271;1276.0;28.0;17.0;11.0;-1;-1;-1;-1;-1;-1;-1;-1;-1;-1;-1;-1;2017;72.92857143;0;9;19;0
05120000000;05342;05;ÁVILA;MARLÍN;639.3937;14660.0;-4.82937834;40.71276225;1203.0;33.0;22.0;11.0;1;1;-1;-1;-1;-1;-1;-1;-1;-1;1;-1;2017;59.78787879;2;19;12;0
05121000000;05345;05;ÁVILA;MARTIHERRERO;2279.237;40141.0;-4.78179568;40.67393415;1230.0;307.0;160.0;147.0;16;1;1;1;1;3;9;-1;2;0;13;1;2017;45.16612378;46;204;57;27
05122000000;05348;05;ÁVILA;MARTÍNEZ;1806.4725;21836.0;-5.34692026;40.63081246;1094.0;129.0;66.0;63.0;5;-1;-1;1;1;3;-1;-1;-1;-1;5;-1;2017;63.41860465;1;68;60;0
05123000000;05351;05;ÁVILA;MEDIANA DE VOLTOYA;1837.6003;28171.0;-4.56260008;40.70062006;1109.0;103.0;51.0;52.0;5;-1;2;1;-1;1;1;-1;-1;-1;5;-1;2017;50.95145631;8;74;21;3
05124000000;05354;05;ÁVILA;MEDINILLA;2287.7706;21505.0;-5.61826337;40.43974687;1066.0;102.0;44.0;58.0;0;-1;-1;-1;-1;-1;0;-1;-1;-1;0;-1;2017;68.56862745;4;37;61;4
05125000000;05357;05;ÁVILA;MENGAMUÑOZ;1174.6574;15480.0;-4.99909673;40.50080697;1312.0;63.0;32.0;31.0;2;-1;-1;-1;-1;2;-1;-1;-1;-1;2;-1;2017;50.42857143;6;41;16;5
05126000000;05360;05;ÁVILA;MESEGAR DE CORNEJA;1028.5809;18447.0;-5.3015071;40.50157206;1018.0;64.0;37.0;27.0;0;-1;-1;0;-1;0;-1;0;-1;-1;0;-1;2017;66.390625;0;32;32;0
05127000000;05363;05;ÁVILA;MIJARES;4696.2555;38595.0;-4.83846916;40.29776767;848.0;736.0;401.0;335.0;55;2;12;20;1;13;7;6;1;9;34;5;2017;53.88858696;79;405;252;58
05128000000;05366;05;ÁVILA;MINGORRÍA;3068.9775;31042.0;-4.6651746;40.75102765;1032.0;394.0;206.0;188.0;37;2;7;8;4;6;10;0;-1;6;24;7;2017;51.5786802;38;243;113;20
05129000000;05369;05;ÁVILA;EL MIRÓN;3107.5713;26350.0;-5.40518728;40.53167299;1258.0;127.0;77.0;50.0;1;-1;-1;1;-1;-1;-1;-1;-1;-1;1;-1;2017;66.03937008;1;61;65;1
05130000000;05372;05;ÁVILA;MIRONCILLO;1523.2142;23008.0;-4.82534856;40.55495884;1122.0;93.0;50.0;43.0;5;-1;2;0;-1;1;2;-1;-1;1;4;-1;2017;55.94623656;8;53;32;4
05131000000;05375;05;ÁVILA;MIRUEÑA DE LOS INFANZONES;3120.5415;32847.0;-5.09371737;40.73749901;1110.0;98.0;55.0;43.0;2;-1;-1;-1;-1;1;1;-1;-1;-1;2;-1;2017;65.56122449;0;46;52;0
05132000000;05378;05;ÁVILA;MOMBELTRÁN;4991.5535;68256.0;-5.01788793;40.26016615;635.0;1070.0;556.0;514.0;114;7;16;38;2;15;36;8;2;2;101;1;2017;53.87476636;120;586;364;70
05133000000;05381;05;ÁVILA;MONSALUPE;1769.9191;24940.0;-4.78130421;40.76920147;1002.0;71.0;36.0;35.0;2;0;-1;-1;1;1;-1;-1;-1;-1;2;-1;2017;59.83098592;5;37;29;2
05134000000;05384;05;ÁVILA;MORALEJA DE MATACABRAS;1492.7573;16293.0;-4.95709677;41.10730121;783.0;51.0;31.0;20.0;1;-1;0;-1;-1;0;1;-1;-1;0;1;-1;2017;52.60784314;3;35;13;2
05135000000;05387;05;ÁVILA;MUÑANA;3361.3894;27433.0;-5.01464764;40.59096044;1169.0;408.0;216.0;192.0;28;1;3;11;1;3;9;2;2;2;21;1;2017;53.5122549;29;273;106;15
05136000000;05390;05;ÁVILA;MUÑICO;1327.5774;23716.0;-5.02790731;40.70662475;1088.0;107.0;53.0;54.0;6;-1;1;0;-1;4;1;-1;-1;1;4;1;2017;51.85046729;15;55;37;12
05138000000;05393;05;ÁVILA;MUÑOGALINDO;1877.1219;40539.0;-4.90139731;40.60386238;1128.0;343.0;175.0;168.0;9;1;1;3;2;1;1;1;1;1;4;2;2017;51.69970845;38;206;99;21
05139000000;05396;05;ÁVILA;MUÑOGRANDE;1616.0801;24337.0;-4.92142682;40.82157685;941.0;62.0;34.0;28.0;2;-1;1;0;-1;-1;1;0;-1;-1;2;-1;2017;62.16129032;1;33;28;1
05140000000;05399;05;ÁVILA;MUÑOMER DEL PECO;1008.8593;18417.0;-4.88046515;40.8595712;895.0;129.0;71.0;58.0;6;1;-1;1;-1;2;2;1;-1;0;3;2;2017;46.72868217;19;82;28;14
05141000000;05402;05;ÁVILA;MUÑOPEPE;601.9016;16562.0;-4.82058269;40.63359439;1118.0;106.0;62.0;44.0;1;-1;1;0;-1;-1;0;-1;-1;-1;1;-1;2017;55.01886792;11;56;39;5
05142000000;05405;05;ÁVILA;MUÑOSANCHO;1971.61;22908.0;-5.03504576;40.92197306;905.0;102.0;46.0;56.0;6;-1;3;0;1;0;2;0;-1;4;1;1;2017;58.58823529;3;64;35;1
05143000000;05408;05;ÁVILA;MUÑOTELLO;1994.4108;21657.0;-5.04068939;40.54269682;1152.0;63.0;32.0;31.0;3;-1;2;0;0;1;-1;-1;-1;-1;2;1;2017;62.01587302;1;37;25;0
05144000000;05414;05;ÁVILA;NARRILLOS DEL ÁLAMO;2934.6582;35746.0;-5.46669469;40.56705525;1116.0;78.0;42.0;36.0;4;-1;-1;2;-1;-1;2;-1;-1;-1;4;-1;2017;62.0;3;40;35;3
05145000000;05417;05;ÁVILA;NARRILLOS DEL REBOLLAR;1740.6824;22984.0;-4.96587472;40.66491971;1378.0;53.0;30.0;23.0;3;-1;1;-1;-1;-1;2;-1;-1;-1;3;-1;2017;60.09433962;0;36;17;0
05147000000;05423;05;ÁVILA;NARROS DEL CASTILLO;3360.5785;27975.0;-5.0596323;40.85896048;956.0;166.0;92.0;74.0;4;-1;-1;2;1;1;0;2;-1;-1;2;-1;2017;56.08433735;9;101;56;3
05148000000;05426;05;ÁVILA;NARROS DEL PUERTO;1037.3185;14983.0;-4.98967711;40.5406329;1150.0;23.0;11.0;12.0;1;-1;-1;1;-1;-1;-1;-1;-1;1;-1;-1;2017;62.26086957;1;13;9;1
05149000000;05420;05;ÁVILA;NARROS DE SALDUEÑA;943.8255;15364.0;-4.86950561;40.87487342;899.0;107.0;61.0;46.0;2;-1;-1;1;-1;-1;1;1;-1;-1;1;-1;2017;60.92523364;5;53;49;1
05151000000;05435;05;ÁVILA;NAVACEPEDILLA DE CORNEJA;2950.1637;23940.0;-5.1843499;40.4858388;1255.0;98.0;52.0;46.0;4;-1;0;1;-1;1;2;0;-1;-1;3;1;2017;58.29591837;7;50;41;4
05152000000;05429;05;ÁVILA;NAVA DE ARÉVALO;5826.4192;37831.0;-4.7763084;40.97853053;864.0;761.0;402.0;359.0;31;3;3;12;0;6;7;11;0;9;11;0;2017;51.15637319;77;488;196;38
05153000000;05432;05;ÁVILA;NAVA DEL BARCO;2937.2428;27917.0;-5.54153356;40.29330109;1143.0;97.0;52.0;45.0;5;-1;-1;3;-1;-1;2;1;-1;0;4;-1;2017;67.60824742;1;38;58;1
05154000000;05438;05;ÁVILA;NAVADIJOS;1985.3438;21806.0;-5.08356359;40.42559007;1520.0;38.0;27.0;11.0;0;-1;-1;-1;-1;-1;0;0;-1;-1;-1;-1;2017;62.44736842;0;24;14;0
05155000000;05441;05;ÁVILA;NAVAESCURIAL;3531.2043;24305.0;-5.27677503;40.47160594;1211.0;55.0;34.0;21.0;4;-1;2;-1;-1;2;-1;-1;-1;-1;3;1;2017;54.50909091;6;31;18;3
05156000000;05444;05;ÁVILA;NAVAHONDILLA;2206.6498;21140.0;-4.49364928;40.32528223;740.0;320.0;181.0;139.0;26;-1;6;8;0;3;9;-1;2;7;16;1;2017;47.375;54;195;71;28
05157000000;05447;05;ÁVILA;NAVALACRUZ;5003.0;41501.0;-4.93221308;40.43997747;1238.0;243.0;127.0;116.0;3;1;-1;2;-1;-1;-1;1;-1;1;1;-1;2017;60.07407407;9;131;103;7
05158000000;05450;05;ÁVILA;NAVALMORAL;4335.3267;27103.0;-4.7632382;40.45986732;1042.0;340.0;180.0;160.0;20;1;2;4;-1;6;7;-1;1;2;13;4;2017;61.59117647;22;163;155;20
05159000000;05453;05;ÁVILA;NAVALONGUILLA;9075.1016;43233.0;-5.49815864;40.27760913;1185.0;253.0;126.0;127.0;10;-1;1;4;-1;1;4;-1;-1;1;9;-1;2017;66.11857708;8;93;152;7
05160000000;05456;05;ÁVILA;NAVALOSA;2999.8843;30551.0;-4.93118074;40.40182635;1304.0;326.0;182.0;144.0;9;-1;1;4;-1;1;3;-1;0;4;5;-1;2017;59.92944785;13;172;141;9
05161000000;05459;05;ÁVILA;NAVALPERAL DE PINARES;4982.7979;30196.0;-4.4091325;40.59448598;1284.0;815.0;418.0;397.0;103;10;15;24;4;25;25;8;3;16;39;37;2017;47.9006135;118;524;173;83
05162000000;05462;05;ÁVILA;NAVALPERAL DE TORMES;6096.12;48995.0;-5.30007964;40.35287936;1301.0;90.0;47.0;43.0;5;-1;2;1;-1;1;1;1;-1;1;3;-1;2017;58.75555556;6;50;34;4
05163000000;05465;05;ÁVILA;NAVALUENGA;7352.9972;37509.0;-4.70814773;40.41273328;763.0;1902.0;933.0;969.0;158;4;19;47;5;41;42;0;8;19;118;13;2017;51.93112513;207;1153;542;132
05164000000;05468;05;ÁVILA;NAVAQUESERA;920.0;17168.0;-4.9087644;40.42502608;1509.0;21.0;9.0;12.0;1;-1;-1;1;-1;-1;-1;-1;1;-1;-1;-1;2017;73.42857143;0;6;15;0
05165000000;05471;05;ÁVILA;NAVARREDONDA DE GREDOS;7881.1764;39024.0;-5.13611924;40.36211331;1523.0;455.0;222.0;233.0;16;-1;1;5;0;4;6;-1;-1;2;13;1;2017;49.5010989;52;298;105;39
05166000000;05474;05;ÁVILA;NAVARREDONDILLA;2026.9814;22511.0;-4.82124612;40.45356275;1132.0;184.0;99.0;85.0;5;-1;1;2;1;1;0;0;1;1;3;-1;2017;61.26630435;13;80;91;5
05167000000;05477;05;ÁVILA;NAVARREVISCA;3999.368;28017.0;-4.89511844;40.36422772;1129.0;285.0;154.0;131.0;12;-1;4;5;-1;1;2;-1;2;4;5;1;2017;54.96140351;19;181;85;8
05168000000;05480;05;ÁVILA;LAS NAVAS DEL MARQUÉS;9793.3893;42395.0;-4.32600955;40.60304637;1296.0;5187.0;2635.0;2552.0;501;26;65;118;28;145;119;14;29;87;262;109;2017;41.48332369;1138;3209;840;796
05169000000;05483;05;ÁVILA;NAVATALGORDO;2008.5562;20908.0;-4.86979955;40.41539353;1262.0;233.0;129.0;104.0;14;0;1;9;1;1;2;1;2;1;9;1;2017;59.9055794;16;115;102;10
05170000000;05486;05;ÁVILA;NAVATEJARES;1107.9833;13795.0;-5.53085021;40.33578195;1043.0;54.0;27.0;27.0;1;-1;-1;1;-1;-1;0;-1;-1;-1;1;-1;2017;63.24074074;4;21;29;0
05171000000;05489;05;ÁVILA;NEILA DE SAN MIGUEL;789.1372;14021.0;-5.65100832;40.42461504;1164.0;71.0;35.0;36.0;-1;-1;-1;-1;-1;-1;-1;-1;-1;-1;-1;-1;2017;66.04225352;0;31;40;0
05172000000;05492;05;ÁVILA;NIHARRA;1128.1793;23225.0;-4.83946125;40.58858781;1088.0;188.0;103.0;85.0;9;1;0;5;-1;1;2;5;0;3;1;-1;2017;51.64361702;13;124;51;10
05173000000;05495;05;ÁVILA;OJOS-ALBOS;4313.0356;35087.0;-4.51642844;40.70646053;1225.0;60.0;37.0;23.0;2;-1;-1;2;-1;-1;-1;-1;-1;1;1;-1;2017;56.21666667;2;39;19;1
05174000000;05498;05;ÁVILA;ORBITA;1438.8495;21256.0;-4.64724662;40.99838127;865.0;76.0;41.0;35.0;1;-1;-1;-1;-1;1;-1;-1;1;-1;-1;-1;2017;57.80263158;8;37;31;4
05175000000;05501;05;ÁVILA;EL OSO;1848.8088;26569.0;-4.77127014;40.84284248;893.0;174.0;100.0;74.0;3;-1;1;1;-1;1;-1;0;1;0;2;-1;2017;60.45977011;7;89;78;4
05176000000;05504;05;ÁVILA;PADIERNOS;3699.0254;38768.0;-4.84478522;40.62193213;1103.0;269.0;146.0;123.0;9;-1;3;2;0;1;3;2;1;-1;6;0;2017;51.33085502;34;164;71;23
05177000000;05507;05;ÁVILA;PAJARES DE ADAJA;2323.7594;21699.0;-4.64035589;40.92369651;878.0;170.0;90.0;80.0;13;0;1;2;-1;3;7;1;1;1;10;0;2017;55.22941176;11;102;57;9
05178000000;05510;05;ÁVILA;PALACIOS DE GODA;5298.5333;33503.0;-4.7849894;41.11785196;818.0;416.0;217.0;199.0;19;0;3;3;-1;10;3;6;-1;5;7;1;2017;51.67307692;41;245;130;29
05179000000;05513;05;ÁVILA;PAPATRIGO;2100.4559;27602.0;-4.83148368;40.87015084;889.0;236.0;117.0;119.0;11;1;0;3;-1;3;4;2;1;5;2;1;2017;54.77966102;30;119;87;16
05180000000;05516;05;ÁVILA;EL PARRAL;1088.7095;13644.0;-4.99028495;40.79782671;1049.0;75.0;40.0;35.0;3;3;-1;-1;0;-1;-1;-1;-1;-1;3;-1;2017;64.72;2;40;33;0
05181000000;05519;05;ÁVILA;PASCUALCOBO;1614.2258;24484.0;-5.27726468;40.6553393;1069.0;43.0;27.0;16.0;4;-1;2;1;-1;1;-1;-1;-1;-1;4;-1;2017;61.06976744;0;24;19;0
05182000000;05522;05;ÁVILA;PEDRO BERNARDO;6900.89;40519.0;-4.91435677;40.24318819;801.0;876.0;463.0;413.0;83;5;11;29;4;18;16;2;17;16;42;6;2017;57.78424658;72;442;362;49
05183000000;05525;05;ÁVILA;PEDRO-RODRÍGUEZ;1407.8845;16031.0;-4.78531524;40.93652348;876.0;148.0;78.0;70.0;5;-1;1;0;-1;2;2;3;-1;-1;2;-1;2017;58.19594595;10;74;64;5
05184000000;05528;05;ÁVILA;PEGUERINOS;8700.7218;49024.0;-4.23331613;40.62652248;1351.0;280.0;151.0;129.0;18;2;2;6;0;4;4;-1;-1;2;13;3;2017;52.78571429;29;172;79;21
05185000000;05531;05;ÁVILA;PEÑALBA DE ÁVILA;2352.3484;35770.0;-4.74734866;40.77199055;1073.0;109.0;59.0;50.0;8;-1;1;2;-1;2;3;1;1;-1;6;-1;2017;52.81651376;13;61;35;6
05186000000;05534;05;ÁVILA;PIEDRAHÍTA;2866.8134;30369.0;-5.32791926;40.46377754;1060.0;1823.0;865.0;958.0;128;3;16;27;2;28;52;3;16;12;90;7;2017;51.10093253;234;1071;518;137
05187000000;05537;05;ÁVILA;PIEDRALAVES;5525.0092;33421.0;-4.69830037;40.31768435;717.0;2105.0;1060.0;1045.0;243;12;29;59;4;59;80;2;25;34;164;18;2017;47.22137767;314;1337;454;186
05188000000;05540;05;ÁVILA;POVEDA;651.3811;12191.0;-5.07967686;40.56628666;1201.0;47.0;30.0;17.0;2;0;-1;-1;-1;1;1;-1;-1;-1;2;-1;2017;68.53191489;2;13;32;1
05189000000;05543;05;ÁVILA;POYALES DEL HOYO;337.8642;7110.0;-5.16544718;40.1724327;548.0;521.0;280.0;241.0;61;1;11;18;-1;11;20;5;6;21;23;6;2017;52.66410749;55;311;155;30
05190000000;05546;05;ÁVILA;POZANCO;1106.7442;25775.0;-4.66945582;40.80000542;915.0;50.0;31.0;19.0;2;-1;-1;-1;-1;1;1;-1;-1;-1;1;1;2017;55.7;1;29;20;1
05191000000;05549;05;ÁVILA;PRADOSEGAR;1129.0281;15211.0;-5.07194337;40.54877889;1178.0;132.0;69.0;63.0;4;-1;2;0;0;0;2;2;-1;-1;2;-1;2017;54.84090909;13;68;51;8
05192000000;05552;05;ÁVILA;PUERTO CASTILLA;4327.8801;33757.0;-5.62943843;40.28982213;1168.0;114.0;69.0;45.0;5;-1;2;1;-1;-1;2;1;-1;-1;3;1;2017;55.13157895;9;70;35;6
05193000000;05555;05;ÁVILA;RASUEROS;4066.4687;34678.0;-5.0749183;41.02309217;832.0;194.0;113.0;81.0;8;-1;1;1;0;1;5;3;1;1;3;0;2017;61.36597938;6;103;85;3
05194000000;05558;05;ÁVILA;RIOCABADO;1977.4032;32336.0;-4.80605215;40.83337644;906.0;151.0;85.0;66.0;9;-1;2;3;-1;1;3;1;1;3;4;-1;2017;53.79470199;10;100;41;6
05195000000;05561;05;ÁVILA;RIOFRÍO;6553.4351;45693.0;-4.7779986;40.54728355;1182.0;223.0;132.0;91.0;6;-1;1;5;-1;0;-1;1;1;3;1;-1;2017;61.1838565;5;125;93;3
05196000000;05564;05;ÁVILA;RIVILLA DE BARAJAS;2438.4128;26251.0;-4.98775612;40.90129693;901.0;59.0;26.0;33.0;3;-1;-1;2;-1;-1;1;1;0;1;1;-1;2017;49.3220339;6;43;10;2
05197000000;05567;05;ÁVILA;SALOBRAL;755.0062;19040.0;-4.81089062;40.6114066;1084.0;102.0;54.0;48.0;5;-1;2;0;-1;-1;3;2;-1;1;2;-1;2017;52.46078431;7;60;35;7
05198000000;05570;05;ÁVILA;SALVADIÓS;2038.3672;23788.0;-5.09616762;40.87683079;951.0;75.0;37.0;38.0;4;1;1;1;-1;-1;1;-1;-1;2;2;-1;2017;61.96;3;36;36;1
05199000000;05573;05;ÁVILA;SAN BARTOLOMÉ DE BÉJAR;1649.0265;20810.0;-5.66269263;40.40828588;1114.0;41.0;23.0;18.0;2;-1;1;1;-1;-1;-1;-1;-1;1;1;-1;2017;59.02439024;4;18;19;3
05200000000;05576;05;ÁVILA;SAN BARTOLOMÉ DE CORNEJA;736.1067;14047.0;-5.3852527;40.49287529;991.0;48.0;23.0;25.0;1;-1;-1;1;-1;-1;-1;-1;-1;-1;1;-1;2017;60.04166667;6;21;21;3
05201000000;05579;05;ÁVILA;SAN BARTOLOMÉ DE PINARES;7448.8741;61452.0;-4.54007894;40.54318685;1039.0;563.0;301.0;262.0;33;1;5;14;1;6;6;1;2;5;23;2;2017;53.38721137;42;356;165;20
05204000000;05636;05;ÁVILA;SANCHIDRIÁN;2659.7437;25496.0;-4.58156208;40.89198117;922.0;738.0;379.0;359.0;47;4;6;7;7;10;13;6;3;7;27;4;2017;50.58536585;79;451;208;39
05205000000;05639;05;ÁVILA;SANCHORREJA;3531.6316;34973.0;-4.91485123;40.6648407;1310.0;81.0;41.0;40.0;2;-1;-1;-1;0;0;2;0;-1;-1;2;0;2017;56.59259259;6;47;28;3
05206000000;05585;05;ÁVILA;SAN ESTEBAN DE LOS PATOS;1035.952;18181.0;-4.62473304;40.74608208;1117.0;33.0;19.0;14.0;1;-1;-1;1;-1;-1;-1;-1;-1;1;-1;-1;2017;54.66666667;3;21;9;3
05207000000;05591;05;ÁVILA;SAN ESTEBAN DEL VALLE;3934.7154;42126.0;-4.97954984;40.27571956;806.0;770.0;405.0;365.0;73;4;10;25;0;17;17;5;3;11;47;7;2017;53.54415584;77;449;244;46
05208000000;05588;05;ÁVILA;SAN ESTEBAN DE ZAPARDIEL;1298.5994;16075.0;-4.90123587;41.09215849;781.0;38.0;23.0;15.0;1;-1;-1;-1;-1;-1;1;-1;-1;-1;1;-1;2017;63.57894737;0;21;17;0
05209000000;05594;05;ÁVILA;SAN GARCÍA DE INGELMOS;3808.1554;36212.0;-5.11618039;40.76993145;1066.0;82.0;48.0;34.0;2;-1;0;0;-1;1;1;-1;1;0;1;-1;2017;65.47560976;0;39;43;0
05210000000;05600;05;ÁVILA;SAN JUAN DE LA ENCINILLA;1737.8508;30933.0;-4.83969097;40.82881844;910.0;86.0;44.0;42.0;2;-1;-1;0;-1;0;2;-1;0;-1;2;-1;2017;64.95348837;1;43;42;0
